[
  {
    "country_slug": "saudi-arabia",
    "country_name_ar": "السعودية",
    "city_slug": "riyadh",
    "city_name_ar": "الرياض",
    "city_name_en": "Riyadh",
    "lat": 24.7136,
    "lon": 46.6753,
    "timezone": "Asia/Riyadh",
    "population": 7676654,
    "priority": 100
  },
  {
    "country_slug": "saudi-arabia",
    "country_name_ar": "السعودية",
    "city_slug": "jeddah",
    "city_name_ar": "جدة",
    "city_name_en": "Jeddah",
    "lat": 21.5433,
    "lon": 39.1728,
    "timezone": "Asia/Riyadh",
    "population": 4697000,
    "priority": 99
  },
  {
    "country_slug": "saudi-arabia",
    "country_name_ar": "السعودية",
    "city_slug": "mecca",
    "city_name_ar": "مكة المكرمة",
    "city_name_en": "Mecca",
    "lat": 21.3891,
    "lon": 39.8579,
    "timezone": "Asia/Riyadh",
    "population": 2385509,
    "priority": 98
  },
  {
    "country_slug": "saudi-arabia",
    "country_name_ar": "السعودية",
    "city_slug": "medina",
    "city_name_ar": "المدينة المنورة",
    "city_name_en": "Medina",
    "lat": 24.5247,
    "lon": 39.5692,
    "timezone": "Asia/Riyadh",
    "population": 1300000,
    "priority": 97
  },
  {
    "country_slug": "saudi-arabia",
    "country_name_ar": "السعودية",
    "city_slug": "dammam",
    "city_name_ar": "الدمام",
    "city_name_en": "Dammam",
    "lat": 26.3927,
    "lon": 49.9777,
    "timezone": "Asia/Riyadh",
    "population": 903312,
    "priority": 90
  },
  {
    "country_slug": "saudi-arabia",
    "country_name_ar": "السعودية",
    "city_slug": "khobar",
    "city_name_ar": "الخبر",
    "city_name_en": "Al Khobar",
    "lat": 26.2172,
    "lon": 50.1971,
    "timezone": "Asia/Riyadh",
    "population": 165799,
    "priority": 80
  },
  {
    "country_slug": "saudi-arabia",
    "country_name_ar": "السعودية",
    "city_slug": "tabuk",
    "city_name_ar": "تبوك",
    "city_name_en": "Tabuk",
    "lat": 28.3835,
    "lon": 36.5662,
    "timezone": "Asia/Riyadh",
    "population": 600807,
    "priority": 75
  },
  {
    "country_slug": "saudi-arabia",
    "country_name_ar": "السعودية",
    "city_slug": "abha",
    "city_name_ar": "أبها",
    "city_name_en": "Abha",
    "lat": 18.2164,
    "lon": 42.5053,
    "timezone": "Asia/Riyadh",
    "population": 387553,
    "priority": 70
  },
  {
    "country_slug": "egypt",
    "country_name_ar": "مصر",
    "city_slug": "cairo",
    "city_name_ar": "القاهرة",
    "city_name_en": "Cairo",
    "lat": 30.0444,
    "lon": 31.2357,
    "timezone": "Africa/Cairo",
    "population": 21322750,
    "priority": 100
  },
  {
    "country_slug": "egypt",
    "country_name_ar": "مصر",
    "city_slug": "alexandria",
    "city_name_ar": "الإسكندرية",
    "city_name_en": "Alexandria",
    "lat": 31.2001,
    "lon": 29.9187,
    "timezone": "Africa/Cairo",
    "population": 5200000,
    "priority": 95
  },
  {
    "country_slug": "egypt",
    "country_name_ar": "مصر",
    "city_slug": "giza",
    "city_name_ar": "الجيزة",
    "city_name_en": "Giza",
    "lat": 30.0131,
    "lon": 31.2089,
    "timezone": "Africa/Cairo",
    "population": 3628062,
    "priority": 90
  },
  {
    "country_slug": "egypt",
    "country_name_ar": "مصر",
    "city_slug": "shubra-el-kheima",
    "city_name_ar": "شبرا الخيمة",
    "city_name_en": "Shubra el Kheima",
    "lat": 30.1286,
    "lon": 31.2422,
    "timezone": "Africa/Cairo",
    "population": 1099354,
    "priority": 80
  },
  {
    "country_slug": "egypt",
    "country_name_ar": "مصر",
    "city_slug": "luxor",
    "city_name_ar": "الأقصر",
    "city_name_en": "Luxor",
    "lat": 25.6872,
    "lon": 32.6396,
    "timezone": "Africa/Cairo",
    "population": 422407,
    "priority": 75
  },
  {
    "country_slug": "egypt",
    "country_name_ar": "مصر",
    "city_slug": "aswan",
    "city_name_ar": "أسوان",
    "city_name_en": "Aswan",
    "lat": 24.0889,
    "lon": 32.8998,
    "timezone": "Africa/Cairo",
    "population": 289975,
    "priority": 70
  },
  {
    "country_slug": "uae",
    "country_name_ar": "الإمارات",
    "city_slug": "dubai",
    "city_name_ar": "دبي",
    "city_name_en": "Dubai",
    "lat": 25.2048,
    "lon": 55.2708,
    "timezone": "Asia/Dubai",
    "population": 3331420,
    "priority": 100
  },
  {
    "country_slug": "uae",
    "country_name_ar": "الإمارات",
    "city_slug": "abu-dhabi",
    "city_name_ar": "أبوظبي",
    "city_name_en": "Abu Dhabi",
    "lat": 24.4539,
    "lon": 54.3773,
    "timezone": "Asia/Dubai",
    "population": 1482816,
    "priority": 99
  },
  {
    "country_slug": "uae",
    "country_name_ar": "الإمارات",
    "city_slug": "sharjah",
    "city_name_ar": "الشارقة",
    "city_name_en": "Sharjah",
    "lat": 25.3463,
    "lon": 55.4209,
    "timezone": "Asia/Dubai",
    "population": 1274749,
    "priority": 95
  },
  {
    "country_slug": "uae",
    "country_name_ar": "الإمارات",
    "city_slug": "ajman",
    "city_name_ar": "عجمان",
    "city_name_en": "Ajman",
    "lat": 25.4052,
    "lon": 55.5136,
    "timezone": "Asia/Dubai",
    "population": 504846,
    "priority": 80
  },
  {
    "country_slug": "uae",
    "country_name_ar": "الإمارات",
    "city_slug": "ras-al-khaimah",
    "city_name_ar": "رأس الخيمة",
    "city_name_en": "Ras Al Khaimah",
    "lat": 25.7953,
    "lon": 55.9763,
    "timezone": "Asia/Dubai",
    "population": 345000,
    "priority": 75
  },
  {
    "country_slug": "morocco",
    "country_name_ar": "المغرب",
    "city_slug": "casablanca",
    "city_name_ar": "الدار البيضاء",
    "city_name_en": "Casablanca",
    "lat": 33.5731,
    "lon": -7.5898,
    "timezone": "Africa/Casablanca",
    "population": 3752000,
    "priority": 100
  },
  {
    "country_slug": "morocco",
    "country_name_ar": "المغرب",
    "city_slug": "rabat",
    "city_name_ar": "الرباط",
    "city_name_en": "Rabat",
    "lat": 34.0209,
    "lon": -6.8416,
    "timezone": "Africa/Casablanca",
    "population": 580000,
    "priority": 98
  },
  {
    "country_slug": "morocco",
    "country_name_ar": "المغرب",
    "city_slug": "sale",
    "city_name_ar": "سلا",
    "city_name_en": "Sale",
    "lat": 34.0531,
    "lon": -6.7985,
    "timezone": "Africa/Casablanca",
    "population": 900000,
    "priority": 97
  },
  {
    "country_slug": "morocco",
    "country_name_ar": "المغرب",
    "city_slug": "kenitra",
    "city_name_ar": "القنيطرة",
    "city_name_en": "Kenitra",
    "lat": 34.2610,
    "lon": -6.5802,
    "timezone": "Africa/Casablanca",
    "population": 450000,
    "priority": 92
  },
  {
    "country_slug": "morocco",
    "country_name_ar": "المغرب",
    "city_slug": "tetouan",
    "city_name_ar": "تطوان",
    "city_name_en": "Tetouan",
    "lat": 35.5785,
    "lon": -5.3684,
    "timezone": "Africa/Casablanca",
    "population": 380000,
    "priority": 91
  },
  {
    "country_slug": "morocco",
    "country_name_ar": "المغرب",
    "city_slug": "marrakech",
    "city_name_ar": "مراكش",
    "city_name_en": "Marrakech",
    "lat": 31.6295,
    "lon": -7.9811,
    "timezone": "Africa/Casablanca",
    "population": 928850,
    "priority": 95
  },
  {
    "country_slug": "morocco",
    "country_name_ar": "المغرب",
    "city_slug": "fes",
    "city_name_ar": "فاس",
    "city_name_en": "Fes",
    "lat": 34.0181,
    "lon": -5.0078,
    "timezone": "Africa/Casablanca",
    "population": 1112072,
    "priority": 90
  },
  {
    "country_slug": "morocco",
    "country_name_ar": "المغرب",
    "city_slug": "tangier",
    "city_name_ar": "طنجة",
    "city_name_en": "Tangier",
    "lat": 35.7595,
    "lon": -5.8340,
    "timezone": "Africa/Casablanca",
    "population": 947952,
    "priority": 88
  },
  {
    "country_slug": "morocco",
    "country_name_ar": "المغرب",
    "city_slug": "agadir",
    "city_name_ar": "أكادير",
    "city_name_en": "Agadir",
    "lat": 30.4278,
    "lon": -9.5981,
    "timezone": "Africa/Casablanca",
    "population": 800000,
    "priority": 85
  },
  {
    "country_slug": "morocco",
    "country_name_ar": "المغرب",
    "city_slug": "oujda",
    "city_name_ar": "وجدة",
    "city_name_en": "Oujda",
    "lat": 34.6814,
    "lon": -1.9086,
    "timezone": "Africa/Casablanca",
    "population": 494252,
    "priority": 80
  },
  {
    "country_slug": "morocco",
    "country_name_ar": "المغرب",
    "city_slug": "meknes",
    "city_name_ar": "مكناس",
    "city_name_en": "Meknes",
    "lat": 33.8935,
    "lon": -5.5473,
    "timezone": "Africa/Casablanca",
    "population": 632079,
    "priority": 78
  },
  {
    "country_slug": "iraq",
    "country_name_ar": "العراق",
    "city_slug": "baghdad",
    "city_name_ar": "بغداد",
    "city_name_en": "Baghdad",
    "lat": 33.3152,
    "lon": 44.3661,
    "timezone": "Asia/Baghdad",
    "population": 8765000,
    "priority": 100
  },
  {
    "country_slug": "iraq",
    "country_name_ar": "العراق",
    "city_slug": "basra",
    "city_name_ar": "البصرة",
    "city_name_en": "Basra",
    "lat": 30.5085,
    "lon": 47.7804,
    "timezone": "Asia/Baghdad",
    "population": 2750000,
    "priority": 90
  },
  {
    "country_slug": "iraq",
    "country_name_ar": "العراق",
    "city_slug": "mosul",
    "city_name_ar": "الموصل",
    "city_name_en": "Mosul",
    "lat": 36.3310,
    "lon": 43.1197,
    "timezone": "Asia/Baghdad",
    "population": 1800000,
    "priority": 88
  },
  {
    "country_slug": "iraq",
    "country_name_ar": "العراق",
    "city_slug": "erbil",
    "city_name_ar": "أربيل",
    "city_name_en": "Erbil",
    "lat": 36.1901,
    "lon": 44.0091,
    "timezone": "Asia/Baghdad",
    "population": 1396000,
    "priority": 80
  },
  {
    "country_slug": "iraq",
    "country_name_ar": "العراق",
    "city_slug": "najaf",
    "city_name_ar": "النجف",
    "city_name_en": "Najaf",
    "lat": 31.9966,
    "lon": 44.3356,
    "timezone": "Asia/Baghdad",
    "population": 1000000,
    "priority": 78
  },
  {
    "country_slug": "kuwait",
    "country_name_ar": "الكويت",
    "city_slug": "kuwait-city",
    "city_name_ar": "مدينة الكويت",
    "city_name_en": "Kuwait City",
    "lat": 29.3759,
    "lon": 47.9774,
    "timezone": "Asia/Kuwait",
    "population": 2380000,
    "priority": 100
  },
  {
    "country_slug": "kuwait",
    "country_name_ar": "الكويت",
    "city_slug": "hawalli",
    "city_name_ar": "حولي",
    "city_name_en": "Hawalli",
    "lat": 29.3323,
    "lon": 48.0298,
    "timezone": "Asia/Kuwait",
    "population": 164212,
    "priority": 80
  },
  {
    "country_slug": "kuwait",
    "country_name_ar": "الكويت",
    "city_slug": "salmiya",
    "city_name_ar": "السالمية",
    "city_name_en": "Salmiya",
    "lat": 29.3341,
    "lon": 48.0682,
    "timezone": "Asia/Kuwait",
    "population": 147649,
    "priority": 78
  },
  {
    "country_slug": "qatar",
    "country_name_ar": "قطر",
    "city_slug": "doha",
    "city_name_ar": "الدوحة",
    "city_name_en": "Doha",
    "lat": 25.2854,
    "lon": 51.5310,
    "timezone": "Asia/Qatar",
    "population": 2382000,
    "priority": 100
  },
  {
    "country_slug": "qatar",
    "country_name_ar": "قطر",
    "city_slug": "al-wakrah",
    "city_name_ar": "الوكرة",
    "city_name_en": "Al Wakrah",
    "lat": 25.1744,
    "lon": 51.5985,
    "timezone": "Asia/Qatar",
    "population": 264009,
    "priority": 80
  },
  {
    "country_slug": "bahrain",
    "country_name_ar": "البحرين",
    "city_slug": "manama",
    "city_name_ar": "المنامة",
    "city_name_en": "Manama",
    "lat": 26.2235,
    "lon": 50.5876,
    "timezone": "Asia/Bahrain",
    "population": 411000,
    "priority": 100
  },
  {
    "country_slug": "oman",
    "country_name_ar": "عُمان",
    "city_slug": "muscat",
    "city_name_ar": "مسقط",
    "city_name_en": "Muscat",
    "lat": 23.5880,
    "lon": 58.3829,
    "timezone": "Asia/Muscat",
    "population": 1562000,
    "priority": 100
  },
  {
    "country_slug": "oman",
    "country_name_ar": "عُمان",
    "city_slug": "salalah",
    "city_name_ar": "صلالة",
    "city_name_en": "Salalah",
    "lat": 17.0151,
    "lon": 54.0924,
    "timezone": "Asia/Muscat",
    "population": 163140,
    "priority": 85
  },
  {
    "country_slug": "jordan",
    "country_name_ar": "الأردن",
    "city_slug": "amman",
    "city_name_ar": "عمّان",
    "city_name_en": "Amman",
    "lat": 31.9539,
    "lon": 35.9106,
    "timezone": "Asia/Amman",
    "population": 4007526,
    "priority": 100
  },
  {
    "country_slug": "jordan",
    "country_name_ar": "الأردن",
    "city_slug": "zarqa",
    "city_name_ar": "الزرقاء",
    "city_name_en": "Zarqa",
    "lat": 32.0728,
    "lon": 36.0880,
    "timezone": "Asia/Amman",
    "population": 792665,
    "priority": 88
  },
  {
    "country_slug": "jordan",
    "country_name_ar": "الأردن",
    "city_slug": "irbid",
    "city_name_ar": "إربد",
    "city_name_en": "Irbid",
    "lat": 32.5556,
    "lon": 35.8500,
    "timezone": "Asia/Amman",
    "population": 307480,
    "priority": 80
  },
  {
    "country_slug": "lebanon",
    "country_name_ar": "لبنان",
    "city_slug": "beirut",
    "city_name_ar": "بيروت",
    "city_name_en": "Beirut",
    "lat": 33.8938,
    "lon": 35.5018,
    "timezone": "Asia/Beirut",
    "population": 2424000,
    "priority": 100
  },
  {
    "country_slug": "lebanon",
    "country_name_ar": "لبنان",
    "city_slug": "tripoli",
    "city_name_ar": "طرابلس",
    "city_name_en": "Tripoli",
    "lat": 34.4367,
    "lon": 35.8497,
    "timezone": "Asia/Beirut",
    "population": 229398,
    "priority": 85
  },
  {
    "country_slug": "syria",
    "country_name_ar": "سوريا",
    "city_slug": "damascus",
    "city_name_ar": "دمشق",
    "city_name_en": "Damascus",
    "lat": 33.5102,
    "lon": 36.2913,
    "timezone": "Asia/Damascus",
    "population": 2079000,
    "priority": 100
  },
  {
    "country_slug": "syria",
    "country_name_ar": "سوريا",
    "city_slug": "aleppo",
    "city_name_ar": "حلب",
    "city_name_en": "Aleppo",
    "lat": 36.2021,
    "lon": 37.1343,
    "timezone": "Asia/Damascus",
    "population": 2098000,
    "priority": 98
  },
  {
    "country_slug": "palestine",
    "country_name_ar": "فلسطين",
    "city_slug": "jerusalem",
    "city_name_ar": "القدس",
    "city_name_en": "Jerusalem",
    "lat": 31.7683,
    "lon": 35.2137,
    "timezone": "Asia/Jerusalem",
    "population": 936425,
    "priority": 100
  },
  {
    "country_slug": "palestine",
    "country_name_ar": "فلسطين",
    "city_slug": "gaza",
    "city_name_ar": "غزة",
    "city_name_en": "Gaza",
    "lat": 31.5017,
    "lon": 34.4668,
    "timezone": "Asia/Gaza",
    "population": 590481,
    "priority": 98
  },
  {
    "country_slug": "palestine",
    "country_name_ar": "فلسطين",
    "city_slug": "ramallah",
    "city_name_ar": "رام الله",
    "city_name_en": "Ramallah",
    "lat": 31.9038,
    "lon": 35.2034,
    "timezone": "Asia/Jerusalem",
    "population": 38998,
    "priority": 90
  },
  {
    "country_slug": "algeria",
    "country_name_ar": "الجزائر",
    "city_slug": "algiers",
    "city_name_ar": "الجزائر العاصمة",
    "city_name_en": "Algiers",
    "lat": 36.7372,
    "lon": 3.0865,
    "timezone": "Africa/Algiers",
    "population": 3415811,
    "priority": 100
  },
  {
    "country_slug": "algeria",
    "country_name_ar": "الجزائر",
    "city_slug": "oran",
    "city_name_ar": "وهران",
    "city_name_en": "Oran",
    "lat": 35.6977,
    "lon": -0.6331,
    "timezone": "Africa/Algiers",
    "population": 803329,
    "priority": 90
  },
  {
    "country_slug": "algeria",
    "country_name_ar": "الجزائر",
    "city_slug": "constantine",
    "city_name_ar": "قسنطينة",
    "city_name_en": "Constantine",
    "lat": 36.3650,
    "lon": 6.6147,
    "timezone": "Africa/Algiers",
    "population": 448374,
    "priority": 85
  },
  {
    "country_slug": "tunisia",
    "country_name_ar": "تونس",
    "city_slug": "tunis",
    "city_name_ar": "تونس العاصمة",
    "city_name_en": "Tunis",
    "lat": 36.8065,
    "lon": 10.1815,
    "timezone": "Africa/Tunis",
    "population": 693210,
    "priority": 100
  },
  {
    "country_slug": "tunisia",
    "country_name_ar": "تونس",
    "city_slug": "sfax",
    "city_name_ar": "صفاقس",
    "city_name_en": "Sfax",
    "lat": 34.7406,
    "lon": 10.7600,
    "timezone": "Africa/Tunis",
    "population": 340733,
    "priority": 88
  },
  {
    "country_slug": "libya",
    "country_name_ar": "ليبيا",
    "city_slug": "tripoli",
    "city_name_ar": "طرابلس",
    "city_name_en": "Tripoli",
    "lat": 32.9032,
    "lon": 13.1800,
    "timezone": "Africa/Tripoli",
    "population": 1165937,
    "priority": 100
  },
  {
    "country_slug": "libya",
    "country_name_ar": "ليبيا",
    "city_slug": "benghazi",
    "city_name_ar": "بنغازي",
    "city_name_en": "Benghazi",
    "lat": 32.1154,
    "lon": 20.0860,
    "timezone": "Africa/Tripoli",
    "population": 1097000,
    "priority": 90
  },
  {
    "country_slug": "sudan",
    "country_name_ar": "السودان",
    "city_slug": "khartoum",
    "city_name_ar": "الخرطوم",
    "city_name_en": "Khartoum",
    "lat": 15.5007,
    "lon": 32.5599,
    "timezone": "Africa/Khartoum",
    "population": 7282939,
    "priority": 100
  },
  {
    "country_slug": "sudan",
    "country_name_ar": "السودان",
    "city_slug": "omdurman",
    "city_name_ar": "أم درمان",
    "city_name_en": "Omdurman",
    "lat": 15.6445,
    "lon": 32.4777,
    "timezone": "Africa/Khartoum",
    "population": 2802968,
    "priority": 90
  },
  {
    "country_slug": "yemen",
    "country_name_ar": "اليمن",
    "city_slug": "sanaa",
    "city_name_ar": "صنعاء",
    "city_name_en": "Sanaa",
    "lat": 15.3694,
    "lon": 44.1910,
    "timezone": "Asia/Aden",
    "population": 2957000,
    "priority": 100
  },
  {
    "country_slug": "yemen",
    "country_name_ar": "اليمن",
    "city_slug": "aden",
    "city_name_ar": "عدن",
    "city_name_en": "Aden",
    "lat": 12.7797,
    "lon": 45.0095,
    "timezone": "Asia/Aden",
    "population": 863000,
    "priority": 90
  },
  {
    "country_slug": "turkey",
    "country_name_ar": "تركيا",
    "city_slug": "istanbul",
    "city_name_ar": "إسطنبول",
    "city_name_en": "Istanbul",
    "lat": 41.0082,
    "lon": 28.9784,
    "timezone": "Europe/Istanbul",
    "population": 15519267,
    "priority": 100
  },
  {
    "country_slug": "turkey",
    "country_name_ar": "تركيا",
    "city_slug": "ankara",
    "city_name_ar": "أنقرة",
    "city_name_en": "Ankara",
    "lat": 39.9334,
    "lon": 32.8597,
    "timezone": "Europe/Istanbul",
    "population": 5663322,
    "priority": 95
  },
  {
    "country_slug": "turkey",
    "country_name_ar": "تركيا",
    "city_slug": "izmir",
    "city_name_ar": "إزمير",
    "city_name_en": "Izmir",
    "lat": 38.4168,
    "lon": 27.1428,
    "timezone": "Europe/Istanbul",
    "population": 4367251,
    "priority": 90
  },
  {
    "country_slug": "pakistan",
    "country_name_ar": "باكستان",
    "city_slug": "karachi",
    "city_name_ar": "كراتشي",
    "city_name_en": "Karachi",
    "lat": 24.8607,
    "lon": 67.0011,
    "timezone": "Asia/Karachi",
    "population": 16093786,
    "priority": 100
  },
  {
    "country_slug": "pakistan",
    "country_name_ar": "باكستان",
    "city_slug": "lahore",
    "city_name_ar": "لاهور",
    "city_name_en": "Lahore",
    "lat": 31.5204,
    "lon": 74.3587,
    "timezone": "Asia/Karachi",
    "population": 13095166,
    "priority": 95
  },
  {
    "country_slug": "pakistan",
    "country_name_ar": "باكستان",
    "city_slug": "islamabad",
    "city_name_ar": "إسلام آباد",
    "city_name_en": "Islamabad",
    "lat": 33.7294,
    "lon": 73.0931,
    "timezone": "Asia/Karachi",
    "population": 1014825,
    "priority": 90
  },
  {
    "country_slug": "indonesia",
    "country_name_ar": "إندونيسيا",
    "city_slug": "jakarta",
    "city_name_ar": "جاكرتا",
    "city_name_en": "Jakarta",
    "lat": -6.2146,
    "lon": 106.8451,
    "timezone": "Asia/Jakarta",
    "population": 34540000,
    "priority": 100
  },
  {
    "country_slug": "indonesia",
    "country_name_ar": "إندونيسيا",
    "city_slug": "surabaya",
    "city_name_ar": "سورابايا",
    "city_name_en": "Surabaya",
    "lat": -7.2492,
    "lon": 112.7508,
    "timezone": "Asia/Jakarta",
    "population": 2874699,
    "priority": 90
  },
  {
    "country_slug": "malaysia",
    "country_name_ar": "ماليزيا",
    "city_slug": "kuala-lumpur",
    "city_name_ar": "كوالالمبور",
    "city_name_en": "Kuala Lumpur",
    "lat": 3.1390,
    "lon": 101.6869,
    "timezone": "Asia/Kuala_Lumpur",
    "population": 1768000,
    "priority": 100
  },
  {
    "country_slug": "iran",
    "country_name_ar": "إيران",
    "city_slug": "tehran",
    "city_name_ar": "طهران",
    "city_name_en": "Tehran",
    "lat": 35.6892,
    "lon": 51.3890,
    "timezone": "Asia/Tehran",
    "population": 9259009,
    "priority": 100
  },
  {
    "country_slug": "iran",
    "country_name_ar": "إيران",
    "city_slug": "mashhad",
    "city_name_ar": "مشهد",
    "city_name_en": "Mashhad",
    "lat": 36.2972,
    "lon": 59.6057,
    "timezone": "Asia/Tehran",
    "population": 3372660,
    "priority": 90
  },
  {
    "country_slug": "uk",
    "country_name_ar": "المملكة المتحدة",
    "city_slug": "london",
    "city_name_ar": "لندن",
    "city_name_en": "London",
    "lat": 51.5072,
    "lon": -0.1276,
    "timezone": "Europe/London",
    "population": 9425622,
    "priority": 100
  },
  {
    "country_slug": "uk",
    "country_name_ar": "المملكة المتحدة",
    "city_slug": "birmingham",
    "city_name_ar": "برمنغهام",
    "city_name_en": "Birmingham",
    "lat": 52.4862,
    "lon": -1.8904,
    "timezone": "Europe/London",
    "population": 2607000,
    "priority": 85
  },
  {
    "country_slug": "uk",
    "country_name_ar": "المملكة المتحدة",
    "city_slug": "manchester",
    "city_name_ar": "مانشستر",
    "city_name_en": "Manchester",
    "lat": 53.4808,
    "lon": -2.2426,
    "timezone": "Europe/London",
    "population": 553230,
    "priority": 80
  },
  {
    "country_slug": "france",
    "country_name_ar": "فرنسا",
    "city_slug": "paris",
    "city_name_ar": "باريس",
    "city_name_en": "Paris",
    "lat": 48.8566,
    "lon": 2.3522,
    "timezone": "Europe/Paris",
    "population": 2161000,
    "priority": 100
  },
  {
    "country_slug": "germany",
    "country_name_ar": "ألمانيا",
    "city_slug": "berlin",
    "city_name_ar": "برلين",
    "city_name_en": "Berlin",
    "lat": 52.5200,
    "lon": 13.4050,
    "timezone": "Europe/Berlin",
    "population": 3645000,
    "priority": 100
  },
  {
    "country_slug": "usa",
    "country_name_ar": "الولايات المتحدة",
    "city_slug": "new-york",
    "city_name_ar": "نيويورك",
    "city_name_en": "New York",
    "lat": 40.7128,
    "lon": -74.0060,
    "timezone": "America/New_York",
    "population": 8336817,
    "priority": 100
  },
  {
    "country_slug": "usa",
    "country_name_ar": "الولايات المتحدة",
    "city_slug": "los-angeles",
    "city_name_ar": "لوس أنجلوس",
    "city_name_en": "Los Angeles",
    "lat": 34.0522,
    "lon": -118.2437,
    "timezone": "America/Los_Angeles",
    "population": 3898747,
    "priority": 95
  },
  {
    "country_slug": "usa",
    "country_name_ar": "الولايات المتحدة",
    "city_slug": "chicago",
    "city_name_ar": "شيكاغو",
    "city_name_en": "Chicago",
    "lat": 41.8781,
    "lon": -87.6298,
    "timezone": "America/Chicago",
    "population": 2693976,
    "priority": 90
  },
  {
    "country_slug": "usa",
    "country_name_ar": "الولايات المتحدة",
    "city_slug": "houston",
    "city_name_ar": "هيوستن",
    "city_name_en": "Houston",
    "lat": 29.7604,
    "lon": -95.3698,
    "timezone": "America/Chicago",
    "population": 2304580,
    "priority": 85
  },
  {
    "country_slug": "usa",
    "country_name_ar": "الولايات المتحدة",
    "city_slug": "dearborn",
    "city_name_ar": "ديربورن",
    "city_name_en": "Dearborn",
    "lat": 42.3223,
    "lon": -83.1763,
    "timezone": "America/Detroit",
    "population": 93590,
    "priority": 88
  },
  {
    "country_slug": "canada",
    "country_name_ar": "كندا",
    "city_slug": "toronto",
    "city_name_ar": "تورنتو",
    "city_name_en": "Toronto",
    "lat": 43.6532,
    "lon": -79.3832,
    "timezone": "America/Toronto",
    "population": 2930000,
    "priority": 100
  },
  {
    "country_slug": "canada",
    "country_name_ar": "كندا",
    "city_slug": "montreal",
    "city_name_ar": "مونتريال",
    "city_name_en": "Montreal",
    "lat": 45.5017,
    "lon": -73.5673,
    "timezone": "America/Toronto",
    "population": 1780000,
    "priority": 90
  }
]