[
  {
    "city_slug": "beijing",
    "city_name_ar": "بكين",
    "city_name_en": "Beijing",
    "country_slug": "china",
    "country_code": "CN",
    "country_name_ar": "الصين",
    "country_name_en": "China",
    "timezone": "Asia/Shanghai",
    "lat": 39.9075,
    "lon": 116.39723,
    "is_capital": true,
    "priority": 18960744,
    "population": 18960744
  },
  {
    "city_slug": "kinshasa",
    "city_name_ar": "كينشاسا",
    "city_name_en": "Kinshasa",
    "country_slug": "democratic-republic-of-the-congo",
    "country_code": "CD",
    "country_name_ar": "جمهورية الكونغو الديمقراطية",
    "country_name_en": "Democratic Republic of the Congo",
    "timezone": "Africa/Kinshasa",
    "lat": -4.32758,
    "lon": 15.31357,
    "is_capital": true,
    "priority": 16000000,
    "population": 16000000
  },
  {
    "city_slug": "mexico-city",
    "city_name_ar": "مدينة مكسيكو",
    "city_name_en": "Mexico City",
    "country_slug": "mexico",
    "country_code": "MX",
    "country_name_ar": "المكسيك",
    "country_name_en": "Mexico",
    "timezone": "America/Mexico_City",
    "lat": 19.42847,
    "lon": -99.12766,
    "is_capital": true,
    "priority": 12294193,
    "population": 12294193
  },
  {
    "city_slug": "moscow",
    "city_name_ar": "موسكو",
    "city_name_en": "Moscow",
    "country_slug": "russia",
    "country_code": "RU",
    "country_name_ar": "روسيا",
    "country_name_en": "Russia",
    "timezone": "Europe/Moscow",
    "lat": 55.75204,
    "lon": 37.61781,
    "is_capital": true,
    "priority": 10381222,
    "population": 10381222
  },
  {
    "city_slug": "dhaka",
    "city_name_ar": "دكا",
    "city_name_en": "Dhaka",
    "country_slug": "bangladesh",
    "country_code": "BD",
    "country_name_ar": "بنغلاديش",
    "country_name_en": "Bangladesh",
    "timezone": "Asia/Dhaka",
    "lat": 23.7104,
    "lon": 90.40744,
    "is_capital": true,
    "priority": 10356500,
    "population": 10356500
  },
  {
    "city_slug": "seoul",
    "city_name_ar": "سيول",
    "city_name_en": "Seoul",
    "country_slug": "south-korea",
    "country_code": "KR",
    "country_name_ar": "كوريا الجنوبية",
    "country_name_en": "South Korea",
    "timezone": "Asia/Seoul",
    "lat": 37.566,
    "lon": 126.9784,
    "is_capital": true,
    "priority": 10349312,
    "population": 10349312
  },
  {
    "city_slug": "tokyo",
    "city_name_ar": "طوكيو",
    "city_name_en": "Tokyo",
    "country_slug": "japan",
    "country_code": "JP",
    "country_name_ar": "اليابان",
    "country_name_en": "Japan",
    "timezone": "Asia/Tokyo",
    "lat": 35.6895,
    "lon": 139.69171,
    "is_capital": true,
    "priority": 9733276,
    "population": 9733276
  },
  {
    "city_slug": "cairo",
    "city_name_ar": "القاهرة",
    "city_name_en": "Cairo",
    "country_slug": "egypt",
    "country_code": "EG",
    "country_name_ar": "مصر",
    "country_name_en": "Egypt",
    "timezone": "Africa/Cairo",
    "lat": 30.06263,
    "lon": 31.24967,
    "is_capital": true,
    "priority": 9606916,
    "population": 9606916
  },
  {
    "city_slug": "london",
    "city_name_ar": "لندن",
    "city_name_en": "London",
    "country_slug": "united-kingdom",
    "country_code": "GB",
    "country_name_ar": "المملكة المتحدة",
    "country_name_en": "United Kingdom",
    "timezone": "Europe/London",
    "lat": 51.50853,
    "lon": -0.12574,
    "is_capital": true,
    "priority": 8961989,
    "population": 8961989
  },
  {
    "city_slug": "jakarta",
    "city_name_ar": "جاكارتا",
    "city_name_en": "Jakarta",
    "country_slug": "indonesia",
    "country_code": "ID",
    "country_name_ar": "إندونيسيا",
    "country_name_en": "Indonesia",
    "timezone": "Asia/Jakarta",
    "lat": -6.21462,
    "lon": 106.84513,
    "is_capital": true,
    "priority": 8540121,
    "population": 8540121
  },
  {
    "city_slug": "hanoi",
    "city_name_ar": "هانوي",
    "city_name_en": "Hanoi",
    "country_slug": "vietnam",
    "country_code": "VN",
    "country_name_ar": "فيتنام",
    "country_name_en": "Vietnam",
    "timezone": "Asia/Bangkok",
    "lat": 21.0245,
    "lon": 105.84117,
    "is_capital": true,
    "priority": 8053663,
    "population": 8053663
  },
  {
    "city_slug": "taipei",
    "city_name_ar": "تايبيه",
    "city_name_en": "Taipei",
    "country_slug": "taiwan",
    "country_code": "TW",
    "country_name_ar": "تايوان",
    "country_name_en": "Taiwan",
    "timezone": "Asia/Taipei",
    "lat": 25.05306,
    "lon": 121.52639,
    "is_capital": true,
    "priority": 7871900,
    "population": 7871900
  },
  {
    "city_slug": "lima",
    "city_name_ar": "ليما",
    "city_name_en": "Lima",
    "country_slug": "peru",
    "country_code": "PE",
    "country_name_ar": "بيرو",
    "country_name_en": "Peru",
    "timezone": "America/Lima",
    "lat": -12.04318,
    "lon": -77.02824,
    "is_capital": true,
    "priority": 7737002,
    "population": 7737002
  },
  {
    "city_slug": "bogota",
    "city_name_ar": "بوغوتا",
    "city_name_en": "Bogota",
    "country_slug": "colombia",
    "country_code": "CO",
    "country_name_ar": "كولومبيا",
    "country_name_en": "Colombia",
    "timezone": "America/Bogota",
    "lat": 4.60971,
    "lon": -74.08175,
    "is_capital": true,
    "priority": 7674366,
    "population": 7674366
  },
  {
    "city_slug": "hong-kong",
    "city_name_ar": "هونغ كونغ",
    "city_name_en": "Hong Kong",
    "country_slug": "hong-kong",
    "country_code": "HK",
    "country_name_ar": "هونغ كونغ",
    "country_name_en": "Hong Kong",
    "timezone": "Asia/Hong_Kong",
    "lat": 22.27832,
    "lon": 114.17469,
    "is_capital": true,
    "priority": 7396076,
    "population": 7396076
  },
  {
    "city_slug": "baghdad",
    "city_name_ar": "بغداد",
    "city_name_en": "Baghdad",
    "country_slug": "iraq",
    "country_code": "IQ",
    "country_name_ar": "العراق",
    "country_name_en": "Iraq",
    "timezone": "Asia/Baghdad",
    "lat": 33.34058,
    "lon": 44.40088,
    "is_capital": true,
    "priority": 7216000,
    "population": 7216000
  },
  {
    "city_slug": "tehran",
    "city_name_ar": "طهران",
    "city_name_en": "Tehran",
    "country_slug": "iran",
    "country_code": "IR",
    "country_name_ar": "إيران",
    "country_name_en": "Iran",
    "timezone": "Asia/Tehran",
    "lat": 35.69439,
    "lon": 51.42151,
    "is_capital": true,
    "priority": 7153309,
    "population": 7153309
  },
  {
    "city_slug": "singapore",
    "city_name_ar": "سنغافورة",
    "city_name_en": "Singapore",
    "country_slug": "singapore",
    "country_code": "SG",
    "country_name_ar": "سنغافورة",
    "country_name_en": "Singapore",
    "timezone": "Asia/Singapore",
    "lat": 1.28967,
    "lon": 103.85007,
    "is_capital": true,
    "priority": 5638700,
    "population": 5638700
  },
  {
    "city_slug": "bangkok",
    "city_name_ar": "بانكوك",
    "city_name_en": "Bangkok",
    "country_slug": "thailand",
    "country_code": "TH",
    "country_name_ar": "تايلاند",
    "country_name_en": "Thailand",
    "timezone": "Asia/Bangkok",
    "lat": 13.75398,
    "lon": 100.50144,
    "is_capital": true,
    "priority": 5104476,
    "population": 5104476
  },
  {
    "city_slug": "santiago",
    "city_name_ar": "سانتياغو",
    "city_name_en": "Santiago",
    "country_slug": "chile",
    "country_code": "CL",
    "country_name_ar": "تشيلي",
    "country_name_en": "Chile",
    "timezone": "America/Santiago",
    "lat": -33.45694,
    "lon": -70.64827,
    "is_capital": true,
    "priority": 4837295,
    "population": 4837295
  },
  {
    "city_slug": "kabul",
    "city_name_ar": "كابل",
    "city_name_en": "Kabul",
    "country_slug": "afghanistan",
    "country_code": "AF",
    "country_name_ar": "أفغانستان",
    "country_name_en": "Afghanistan",
    "timezone": "Asia/Kabul",
    "lat": 34.52813,
    "lon": 69.17233,
    "is_capital": true,
    "priority": 4434550,
    "population": 4434550
  },
  {
    "city_slug": "nairobi",
    "city_name_ar": "نيروبي",
    "city_name_en": "Nairobi",
    "country_slug": "kenya",
    "country_code": "KE",
    "country_name_ar": "كينيا",
    "country_name_en": "Kenya",
    "timezone": "Africa/Nairobi",
    "lat": -1.28333,
    "lon": 36.81667,
    "is_capital": true,
    "priority": 4397073,
    "population": 4397073
  },
  {
    "city_slug": "bamako",
    "city_name_ar": "باماكو",
    "city_name_en": "Bamako",
    "country_slug": "mali",
    "country_code": "ML",
    "country_name_ar": "مالي",
    "country_name_en": "Mali",
    "timezone": "Africa/Bamako",
    "lat": 12.60915,
    "lon": -7.97522,
    "is_capital": true,
    "priority": 4227569,
    "population": 4227569
  },
  {
    "city_slug": "riyadh",
    "city_name_ar": "الرياض",
    "city_name_en": "Riyadh",
    "country_slug": "saudi-arabia",
    "country_code": "SA",
    "country_name_ar": "السعودية",
    "country_name_en": "Saudi Arabia",
    "timezone": "Asia/Riyadh",
    "lat": 24.68773,
    "lon": 46.72185,
    "is_capital": true,
    "priority": 4205961,
    "population": 4205961
  },
  {
    "city_slug": "addis-ababa",
    "city_name_ar": "أديس أبابا",
    "city_name_en": "Addis Ababa",
    "country_slug": "ethiopia",
    "country_code": "ET",
    "country_name_ar": "إثيوبيا",
    "country_name_en": "Ethiopia",
    "timezone": "Africa/Addis_Ababa",
    "lat": 9.02497,
    "lon": 38.74689,
    "is_capital": true,
    "priority": 3860000,
    "population": 3860000
  },
  {
    "city_slug": "ankara",
    "city_name_ar": "أنقرة",
    "city_name_en": "Ankara",
    "country_slug": "turkey",
    "country_code": "TR",
    "country_name_ar": "تركيا",
    "country_name_en": "Turkey",
    "timezone": "Europe/Istanbul",
    "lat": 39.91987,
    "lon": 32.85427,
    "is_capital": true,
    "priority": 3517182,
    "population": 3517182
  },
  {
    "city_slug": "berlin",
    "city_name_ar": "برلين",
    "city_name_en": "Berlin",
    "country_slug": "germany",
    "country_code": "DE",
    "country_name_ar": "ألمانيا",
    "country_name_en": "Germany",
    "timezone": "Europe/Berlin",
    "lat": 52.52437,
    "lon": 13.41053,
    "is_capital": true,
    "priority": 3426354,
    "population": 3426354
  },
  {
    "city_slug": "madrid",
    "city_name_ar": "مدريد",
    "city_name_en": "Madrid",
    "country_slug": "spain",
    "country_code": "ES",
    "country_name_ar": "إسبانيا",
    "country_name_en": "Spain",
    "timezone": "Europe/Madrid",
    "lat": 40.4165,
    "lon": -3.70256,
    "is_capital": true,
    "priority": 3255944,
    "population": 3255944
  },
  {
    "city_slug": "pyongyang",
    "city_name_ar": "بيونغيانغ",
    "city_name_en": "Pyongyang",
    "country_slug": "north-korea",
    "country_code": "KP",
    "country_name_ar": "كوريا الشمالية",
    "country_name_en": "North Korea",
    "timezone": "Asia/Pyongyang",
    "lat": 39.03385,
    "lon": 125.75432,
    "is_capital": true,
    "priority": 3222000,
    "population": 3222000
  },
  {
    "city_slug": "caracas",
    "city_name_ar": "كاراكاس",
    "city_name_en": "Caracas",
    "country_slug": "venezuela",
    "country_code": "VE",
    "country_name_ar": "فنزويلا",
    "country_name_en": "Venezuela",
    "timezone": "America/Caracas",
    "lat": 10.48801,
    "lon": -66.87919,
    "is_capital": true,
    "priority": 3000000,
    "population": 3000000
  },
  {
    "city_slug": "buenos-aires",
    "city_name_ar": "بوينس آيرس",
    "city_name_en": "Buenos Aires",
    "country_slug": "argentina",
    "country_code": "AR",
    "country_name_ar": "الأرجنتين",
    "country_name_en": "Argentina",
    "timezone": "America/Argentina/Buenos_Aires",
    "lat": -34.61315,
    "lon": -58.37723,
    "is_capital": true,
    "priority": 2891082,
    "population": 2891082
  },
  {
    "city_slug": "kyiv",
    "city_name_ar": "كييف",
    "city_name_en": "Kyiv",
    "country_slug": "ukraine",
    "country_code": "UA",
    "country_name_ar": "أوكرانيا",
    "country_name_en": "Ukraine",
    "timezone": "Europe/Kyiv",
    "lat": 50.45466,
    "lon": 30.5238,
    "is_capital": true,
    "priority": 2797553,
    "population": 2797553
  },
  {
    "city_slug": "quito",
    "city_name_ar": "كيتو",
    "city_name_en": "Quito",
    "country_slug": "ecuador",
    "country_code": "EC",
    "country_name_ar": "الإكوادور",
    "country_name_en": "Ecuador",
    "timezone": "America/Guayaquil",
    "lat": -0.22985,
    "lon": -78.52495,
    "is_capital": true,
    "priority": 2781641,
    "population": 2781641
  },
  {
    "city_slug": "luanda",
    "city_name_ar": "لواندا",
    "city_name_en": "Luanda",
    "country_slug": "angola",
    "country_code": "AO",
    "country_name_ar": "أنغولا",
    "country_name_en": "Angola",
    "timezone": "Africa/Luanda",
    "lat": -8.83682,
    "lon": 13.23432,
    "is_capital": true,
    "priority": 2776168,
    "population": 2776168
  },
  {
    "city_slug": "abuja",
    "city_name_ar": "أبوجا",
    "city_name_en": "Abuja",
    "country_slug": "nigeria",
    "country_code": "NG",
    "country_name_ar": "نيجيريا",
    "country_name_en": "Nigeria",
    "timezone": "Africa/Lagos",
    "lat": 9.05785,
    "lon": 7.49508,
    "is_capital": true,
    "priority": 2690000,
    "population": 2690000
  },
  {
    "city_slug": "dakar",
    "city_name_ar": "داكار",
    "city_name_en": "Dakar",
    "country_slug": "senegal",
    "country_code": "SN",
    "country_name_ar": "السنغال",
    "country_name_en": "Senegal",
    "timezone": "Africa/Dakar",
    "lat": 14.6937,
    "lon": -17.44406,
    "is_capital": true,
    "priority": 2646503,
    "population": 2646503
  },
  {
    "city_slug": "mogadishu",
    "city_name_ar": "مقديشو",
    "city_name_en": "Mogadishu",
    "country_slug": "somalia",
    "country_code": "SO",
    "country_name_ar": "الصومال",
    "country_name_en": "Somalia",
    "timezone": "Africa/Mogadishu",
    "lat": 2.03711,
    "lon": 45.34375,
    "is_capital": true,
    "priority": 2587183,
    "population": 2587183
  },
  {
    "city_slug": "ouagadougou",
    "city_name_ar": "واغادوغو",
    "city_name_en": "Ouagadougou",
    "country_slug": "burkina-faso",
    "country_code": "BF",
    "country_name_ar": "بوركينا فاسو",
    "country_name_en": "Burkina Faso",
    "timezone": "Africa/Ouagadougou",
    "lat": 12.36566,
    "lon": -1.53388,
    "is_capital": true,
    "priority": 2415266,
    "population": 2415266
  },
  {
    "city_slug": "algiers",
    "city_name_ar": "الجزائر",
    "city_name_en": "Algiers",
    "country_slug": "algeria",
    "country_code": "DZ",
    "country_name_ar": "الجزائر",
    "country_name_en": "Algeria",
    "timezone": "Africa/Algiers",
    "lat": 36.73225,
    "lon": 3.08746,
    "is_capital": true,
    "priority": 2364230,
    "population": 2364230
  },
  {
    "city_slug": "rome",
    "city_name_ar": "روما",
    "city_name_en": "Rome",
    "country_slug": "italy",
    "country_code": "IT",
    "country_name_ar": "إيطاليا",
    "country_name_en": "Italy",
    "timezone": "Europe/Rome",
    "lat": 41.89193,
    "lon": 12.51133,
    "is_capital": true,
    "priority": 2318895,
    "population": 2318895
  },
  {
    "city_slug": "lusaka",
    "city_name_ar": "لوساكا",
    "city_name_en": "Lusaka",
    "country_slug": "zambia",
    "country_code": "ZM",
    "country_name_ar": "زامبيا",
    "country_name_en": "Zambia",
    "timezone": "Africa/Lusaka",
    "lat": -15.40669,
    "lon": 28.28713,
    "is_capital": true,
    "priority": 2212301,
    "population": 2212301
  },
  {
    "city_slug": "brasilia",
    "city_name_ar": "برازيليا",
    "city_name_en": "Brasilia",
    "country_slug": "brazil",
    "country_code": "BR",
    "country_name_ar": "البرازيل",
    "country_name_en": "Brazil",
    "timezone": "America/Sao_Paulo",
    "lat": -15.77972,
    "lon": -47.92972,
    "is_capital": true,
    "priority": 2207718,
    "population": 2207718
  },
  {
    "city_slug": "santo-domingo",
    "city_name_ar": "سانتو دومينغو",
    "city_name_en": "Santo Domingo",
    "country_slug": "dominican-republic",
    "country_code": "DO",
    "country_name_ar": "جمهورية الدومينيكان",
    "country_name_en": "Dominican Republic",
    "timezone": "America/Santo_Domingo",
    "lat": 18.47186,
    "lon": -69.89232,
    "is_capital": true,
    "priority": 2201941,
    "population": 2201941
  },
  {
    "city_slug": "lome",
    "city_name_ar": "لومي",
    "city_name_en": "Lome",
    "country_slug": "togo",
    "country_code": "TG",
    "country_name_ar": "توغو",
    "country_name_en": "Togo",
    "timezone": "Africa/Lome",
    "lat": 6.12874,
    "lon": 1.22154,
    "is_capital": true,
    "priority": 2188376,
    "population": 2188376
  },
  {
    "city_slug": "havana",
    "city_name_ar": "هافانا",
    "city_name_en": "Havana",
    "country_slug": "cuba",
    "country_code": "CU",
    "country_name_ar": "كوبا",
    "country_name_en": "Cuba",
    "timezone": "America/Havana",
    "lat": 23.13302,
    "lon": -82.38304,
    "is_capital": true,
    "priority": 2163824,
    "population": 2163824
  },
  {
    "city_slug": "paris",
    "city_name_ar": "باريس",
    "city_name_en": "Paris",
    "country_slug": "france",
    "country_code": "FR",
    "country_name_ar": "فرنسا",
    "country_name_en": "France",
    "timezone": "Europe/Paris",
    "lat": 48.85341,
    "lon": 2.3488,
    "is_capital": true,
    "priority": 2138551,
    "population": 2138551
  },
  {
    "city_slug": "pretoria",
    "city_name_ar": "بريتوريا",
    "city_name_en": "Pretoria",
    "country_slug": "south-africa",
    "country_code": "ZA",
    "country_name_ar": "جنوب إفريقيا",
    "country_name_en": "South Africa",
    "timezone": "Africa/Johannesburg",
    "lat": -25.74486,
    "lon": 28.18783,
    "is_capital": true,
    "priority": 2112693,
    "population": 2112693
  },
  {
    "city_slug": "brazzaville",
    "city_name_ar": "برازافيل",
    "city_name_en": "Brazzaville",
    "country_slug": "republic-of-the-congo",
    "country_code": "CG",
    "country_name_ar": "جمهورية الكونغو",
    "country_name_en": "Republic of the Congo",
    "timezone": "Africa/Brazzaville",
    "lat": -4.26613,
    "lon": 15.28318,
    "is_capital": true,
    "priority": 1982000,
    "population": 1982000
  },
  {
    "city_slug": "tashkent",
    "city_name_ar": "طشقند",
    "city_name_en": "Tashkent",
    "country_slug": "uzbekistan",
    "country_code": "UZ",
    "country_name_ar": "أوزبكستان",
    "country_name_en": "Uzbekistan",
    "timezone": "Asia/Tashkent",
    "lat": 41.26465,
    "lon": 69.21627,
    "is_capital": true,
    "priority": 1978028,
    "population": 1978028
  },
  {
    "city_slug": "khartoum",
    "city_name_ar": "خرطوم",
    "city_name_en": "Khartoum",
    "country_slug": "sudan",
    "country_code": "SD",
    "country_name_ar": "السودان",
    "country_name_en": "Sudan",
    "timezone": "Africa/Khartoum",
    "lat": 15.55177,
    "lon": 32.53241,
    "is_capital": true,
    "priority": 1974647,
    "population": 1974647
  },
  {
    "city_slug": "accra",
    "city_name_ar": "أكرا",
    "city_name_en": "Accra",
    "country_slug": "ghana",
    "country_code": "GH",
    "country_name_ar": "غانا",
    "country_name_en": "Ghana",
    "timezone": "Africa/Accra",
    "lat": 5.55602,
    "lon": -0.1969,
    "is_capital": true,
    "priority": 1963264,
    "population": 1963264
  },
  {
    "city_slug": "sanaa",
    "city_name_ar": "صنعاء",
    "city_name_en": "Sanaa",
    "country_slug": "yemen",
    "country_code": "YE",
    "country_name_ar": "اليمن",
    "country_name_en": "Yemen",
    "timezone": "Asia/Aden",
    "lat": 15.35452,
    "lon": 44.20646,
    "is_capital": true,
    "priority": 1937451,
    "population": 1937451
  },
  {
    "city_slug": "conakry",
    "city_name_ar": "كوناكري",
    "city_name_en": "Conakry",
    "country_slug": "guinea",
    "country_code": "GN",
    "country_name_ar": "غينيا",
    "country_name_en": "Guinea",
    "timezone": "Africa/Conakry",
    "lat": 9.53795,
    "lon": -13.67729,
    "is_capital": true,
    "priority": 1928389,
    "population": 1928389
  },
  {
    "city_slug": "beirut",
    "city_name_ar": "بيروت",
    "city_name_en": "Beirut",
    "country_slug": "lebanon",
    "country_code": "LB",
    "country_name_ar": "لبنان",
    "country_name_en": "Lebanon",
    "timezone": "Asia/Beirut",
    "lat": 33.89332,
    "lon": 35.50157,
    "is_capital": true,
    "priority": 1916100,
    "population": 1916100
  },
  {
    "city_slug": "bucharest",
    "city_name_ar": "بوخارست",
    "city_name_en": "Bucharest",
    "country_slug": "romania",
    "country_code": "RO",
    "country_name_ar": "رومانيا",
    "country_name_en": "Romania",
    "timezone": "Europe/Bucharest",
    "lat": 44.43225,
    "lon": 26.10626,
    "is_capital": true,
    "priority": 1877155,
    "population": 1877155
  },
  {
    "city_slug": "abu-dhabi",
    "city_name_ar": "أبوظبي",
    "city_name_en": "Abu Dhabi",
    "country_slug": "united-arab-emirates",
    "country_code": "AE",
    "country_name_ar": "الإمارات العربية المتحدة",
    "country_name_en": "United Arab Emirates",
    "timezone": "Asia/Dubai",
    "lat": 24.45118,
    "lon": 54.39696,
    "is_capital": true,
    "priority": 1807000,
    "population": 1807000
  },
  {
    "city_slug": "minsk",
    "city_name_ar": "مينسك",
    "city_name_en": "Minsk",
    "country_slug": "belarus",
    "country_code": "BY",
    "country_name_ar": "بيلاروس",
    "country_name_en": "Belarus",
    "timezone": "Europe/Minsk",
    "lat": 53.90019,
    "lon": 27.56653,
    "is_capital": true,
    "priority": 1742124,
    "population": 1742124
  },
  {
    "city_slug": "budapest",
    "city_name_ar": "بودابست",
    "city_name_en": "Budapest",
    "country_slug": "hungary",
    "country_code": "HU",
    "country_name_ar": "المجر",
    "country_name_en": "Hungary",
    "timezone": "Europe/Budapest",
    "lat": 47.49835,
    "lon": 19.04045,
    "is_capital": true,
    "priority": 1741041,
    "population": 1741041
  },
  {
    "city_slug": "warsaw",
    "city_name_ar": "وارسو",
    "city_name_en": "Warsaw",
    "country_slug": "poland",
    "country_code": "PL",
    "country_name_ar": "بولندا",
    "country_name_en": "Poland",
    "timezone": "Europe/Warsaw",
    "lat": 52.22977,
    "lon": 21.01178,
    "is_capital": true,
    "priority": 1702139,
    "population": 1702139
  },
  {
    "city_slug": "vienna",
    "city_name_ar": "فيينا",
    "city_name_en": "Vienna",
    "country_slug": "austria",
    "country_code": "AT",
    "country_name_ar": "النمسا",
    "country_name_en": "Austria",
    "timezone": "Europe/Vienna",
    "lat": 48.20849,
    "lon": 16.37208,
    "is_capital": true,
    "priority": 1691468,
    "population": 1691468
  },
  {
    "city_slug": "kampala",
    "city_name_ar": "كمبالا",
    "city_name_en": "Kampala",
    "country_slug": "uganda",
    "country_code": "UG",
    "country_name_ar": "أوغندا",
    "country_name_en": "Uganda",
    "timezone": "Africa/Kampala",
    "lat": 0.31628,
    "lon": 32.58219,
    "is_capital": true,
    "priority": 1680600,
    "population": 1680600
  },
  {
    "city_slug": "rabat",
    "city_name_ar": "رباط",
    "city_name_en": "Rabat",
    "country_slug": "morocco",
    "country_code": "MA",
    "country_name_ar": "المغرب",
    "country_name_en": "Morocco",
    "timezone": "Africa/Casablanca",
    "lat": 34.01325,
    "lon": -6.83255,
    "is_capital": true,
    "priority": 1655753,
    "population": 1655753
  },
  {
    "city_slug": "manila",
    "city_name_ar": "مانيلا",
    "city_name_en": "Manila",
    "country_slug": "philippines",
    "country_code": "PH",
    "country_name_ar": "الفلبين",
    "country_name_en": "Philippines",
    "timezone": "Asia/Manila",
    "lat": 14.6042,
    "lon": 120.9822,
    "is_capital": true,
    "priority": 1600000,
    "population": 1600000
  },
  {
    "city_slug": "phnom-penh",
    "city_name_ar": "بنوم بنه",
    "city_name_en": "Phnom Penh",
    "country_slug": "cambodia",
    "country_code": "KH",
    "country_name_ar": "كمبوديا",
    "country_name_en": "Cambodia",
    "timezone": "Asia/Phnom_Penh",
    "lat": 11.56245,
    "lon": 104.91601,
    "is_capital": true,
    "priority": 1573544,
    "population": 1573544
  },
  {
    "city_slug": "damascus",
    "city_name_ar": "دمشق",
    "city_name_en": "Damascus",
    "country_slug": "syria",
    "country_code": "SY",
    "country_name_ar": "سوريا",
    "country_name_en": "Syria",
    "timezone": "Asia/Damascus",
    "lat": 33.5102,
    "lon": 36.29128,
    "is_capital": true,
    "priority": 1569394,
    "population": 1569394
  },
  {
    "city_slug": "harare",
    "city_name_ar": "هراري",
    "city_name_en": "Harare",
    "country_slug": "zimbabwe",
    "country_code": "ZW",
    "country_name_ar": "زيمبابوي",
    "country_name_en": "Zimbabwe",
    "timezone": "Africa/Harare",
    "lat": -17.82772,
    "lon": 31.05337,
    "is_capital": true,
    "priority": 1542813,
    "population": 1542813
  },
  {
    "city_slug": "monrovia",
    "city_name_ar": "مونروفيا",
    "city_name_en": "Monrovia",
    "country_slug": "liberia",
    "country_code": "LR",
    "country_name_ar": "ليبيريا",
    "country_name_en": "Liberia",
    "timezone": "Africa/Monrovia",
    "lat": 6.30054,
    "lon": -10.7969,
    "is_capital": true,
    "priority": 1542549,
    "population": 1542549
  },
  {
    "city_slug": "stockholm",
    "city_name_ar": "ستوكهولم",
    "city_name_en": "Stockholm",
    "country_slug": "sweden",
    "country_code": "SE",
    "country_name_ar": "السويد",
    "country_name_en": "Sweden",
    "timezone": "Europe/Stockholm",
    "lat": 59.32938,
    "lon": 18.06871,
    "is_capital": true,
    "priority": 1515017,
    "population": 1515017
  },
  {
    "city_slug": "asuncion",
    "city_name_ar": "أسونسيون",
    "city_name_en": "Asuncion",
    "country_slug": "paraguay",
    "country_code": "PY",
    "country_name_ar": "باراغواي",
    "country_name_en": "Paraguay",
    "timezone": "America/Asuncion",
    "lat": -25.28646,
    "lon": -57.647,
    "is_capital": true,
    "priority": 1482200,
    "population": 1482200
  },
  {
    "city_slug": "kuala-lumpur",
    "city_name_ar": "كوالالمبور",
    "city_name_en": "Kuala Lumpur",
    "country_slug": "malaysia",
    "country_code": "MY",
    "country_name_ar": "ماليزيا",
    "country_name_en": "Malaysia",
    "timezone": "Asia/Kuala_Lumpur",
    "lat": 3.1412,
    "lon": 101.68653,
    "is_capital": true,
    "priority": 1453975,
    "population": 1453975
  },
  {
    "city_slug": "kathmandu",
    "city_name_ar": "كاتماندو",
    "city_name_en": "Kathmandu",
    "country_slug": "nepal",
    "country_code": "NP",
    "country_name_ar": "نيبال",
    "country_name_en": "Nepal",
    "timezone": "Asia/Kathmandu",
    "lat": 27.70169,
    "lon": 85.3206,
    "is_capital": true,
    "priority": 1442271,
    "population": 1442271
  },
  {
    "city_slug": "ndjamena",
    "city_name_ar": "انجمينا",
    "city_name_en": "N'Djamena",
    "country_slug": "chad",
    "country_code": "TD",
    "country_name_ar": "تشاد",
    "country_name_en": "Chad",
    "timezone": "Africa/Ndjamena",
    "lat": 12.10672,
    "lon": 15.0444,
    "is_capital": true,
    "priority": 1359526,
    "population": 1359526
  },
  {
    "city_slug": "antananarivo",
    "city_name_ar": "أنتاناناريفو",
    "city_name_en": "Antananarivo",
    "country_slug": "madagascar",
    "country_code": "MG",
    "country_name_ar": "مدغشقر",
    "country_name_en": "Madagascar",
    "timezone": "Indian/Antananarivo",
    "lat": -18.91368,
    "lon": 47.53613,
    "is_capital": true,
    "priority": 1349501,
    "population": 1349501
  },
  {
    "city_slug": "niamey",
    "city_name_ar": "نيامي",
    "city_name_en": "Niamey",
    "country_slug": "niger",
    "country_code": "NE",
    "country_name_ar": "النيجر",
    "country_name_en": "Niger",
    "timezone": "Africa/Niamey",
    "lat": 13.51366,
    "lon": 2.1098,
    "is_capital": true,
    "priority": 1323691,
    "population": 1323691
  },
  {
    "city_slug": "tripoli",
    "city_name_ar": "طَرَابُلُس",
    "city_name_en": "Tripoli",
    "country_slug": "libya",
    "country_code": "LY",
    "country_name_ar": "ليبيا",
    "country_name_en": "Libya",
    "timezone": "Africa/Tripoli",
    "lat": 32.88743,
    "lon": 13.18733,
    "is_capital": true,
    "priority": 1302947,
    "population": 1302947
  },
  {
    "city_slug": "yaounde",
    "city_name_ar": "ياوندي",
    "city_name_en": "Yaounde",
    "country_slug": "cameroon",
    "country_code": "CM",
    "country_name_ar": "الكاميرون",
    "country_name_en": "Cameroon",
    "timezone": "Africa/Douala",
    "lat": 3.86667,
    "lon": 11.51667,
    "is_capital": true,
    "priority": 1299369,
    "population": 1299369
  },
  {
    "city_slug": "amman",
    "city_name_ar": "عمّان",
    "city_name_en": "Amman",
    "country_slug": "jordan",
    "country_code": "JO",
    "country_name_ar": "الأردن",
    "country_name_en": "Jordan",
    "timezone": "Asia/Amman",
    "lat": 31.95522,
    "lon": 35.94503,
    "is_capital": true,
    "priority": 1275857,
    "population": 1275857
  },
  {
    "city_slug": "belgrade",
    "city_name_ar": "بلغراد",
    "city_name_en": "Belgrade",
    "country_slug": "serbia",
    "country_code": "RS",
    "country_name_ar": "صربيا",
    "country_name_en": "Serbia",
    "timezone": "Europe/Belgrade",
    "lat": 44.80401,
    "lon": 20.46513,
    "is_capital": true,
    "priority": 1273651,
    "population": 1273651
  },
  {
    "city_slug": "montevideo",
    "city_name_ar": "مونتفيدو",
    "city_name_en": "Montevideo",
    "country_slug": "uruguay",
    "country_code": "UY",
    "country_name_ar": "الأوروغواي",
    "country_name_en": "Uruguay",
    "timezone": "America/Montevideo",
    "lat": -34.90328,
    "lon": -56.18816,
    "is_capital": true,
    "priority": 1270737,
    "population": 1270737
  },
  {
    "city_slug": "maputo",
    "city_name_ar": "مابوتو",
    "city_name_en": "Maputo",
    "country_slug": "mozambique",
    "country_code": "MZ",
    "country_name_ar": "موزمبيق",
    "country_name_en": "Mozambique",
    "timezone": "Africa/Maputo",
    "lat": -25.96553,
    "lon": 32.58322,
    "is_capital": true,
    "priority": 1254837,
    "population": 1254837
  },
  {
    "city_slug": "port-au-prince",
    "city_name_ar": "بورت أو برانس",
    "city_name_en": "Port-au-Prince",
    "country_slug": "haiti",
    "country_code": "HT",
    "country_name_ar": "هايتي",
    "country_name_en": "Haiti",
    "timezone": "America/Port-au-Prince",
    "lat": 18.54349,
    "lon": -72.33881,
    "is_capital": true,
    "priority": 1234742,
    "population": 1234742
  },
  {
    "city_slug": "nouakchott",
    "city_name_ar": "نواكشوط",
    "city_name_en": "Nouakchott",
    "country_slug": "mauritania",
    "country_code": "MR",
    "country_name_ar": "موريتانيا",
    "country_name_en": "Mauritania",
    "timezone": "Africa/Nouakchott",
    "lat": 18.08581,
    "lon": -15.9785,
    "is_capital": true,
    "priority": 1184530,
    "population": 1184530
  },
  {
    "city_slug": "prague",
    "city_name_ar": "براغ",
    "city_name_en": "Prague",
    "country_slug": "czechia",
    "country_code": "CZ",
    "country_name_ar": "جمهورية التشيك",
    "country_name_en": "Czechia",
    "timezone": "Europe/Prague",
    "lat": 50.08804,
    "lon": 14.42076,
    "is_capital": true,
    "priority": 1165581,
    "population": 1165581
  },
  {
    "city_slug": "copenhagen",
    "city_name_ar": "كوبنهاغن",
    "city_name_en": "Copenhagen",
    "country_slug": "denmark",
    "country_code": "DK",
    "country_name_ar": "الدنمارك",
    "country_name_en": "Denmark",
    "timezone": "Europe/Copenhagen",
    "lat": 55.67594,
    "lon": 12.56553,
    "is_capital": true,
    "priority": 1153615,
    "population": 1153615
  },
  {
    "city_slug": "sofia",
    "city_name_ar": "صوفيا",
    "city_name_en": "Sofia",
    "country_slug": "bulgaria",
    "country_code": "BG",
    "country_name_ar": "بلغاريا",
    "country_name_en": "Bulgaria",
    "timezone": "Europe/Sofia",
    "lat": 42.69751,
    "lon": 23.32415,
    "is_capital": true,
    "priority": 1152556,
    "population": 1152556
  },
  {
    "city_slug": "yerevan",
    "city_name_ar": "يريفان",
    "city_name_en": "Yerevan",
    "country_slug": "armenia",
    "country_code": "AM",
    "country_name_ar": "أرمينيا",
    "country_name_en": "Armenia",
    "timezone": "Asia/Yerevan",
    "lat": 40.17765,
    "lon": 44.5126,
    "is_capital": true,
    "priority": 1144700,
    "population": 1144700
  },
  {
    "city_slug": "kigali",
    "city_name_ar": "كيغالي",
    "city_name_en": "Kigali",
    "country_slug": "rwanda",
    "country_code": "RW",
    "country_name_ar": "رواندا",
    "country_name_en": "Rwanda",
    "timezone": "Africa/Kigali",
    "lat": -1.94995,
    "lon": 30.05885,
    "is_capital": true,
    "priority": 1132686,
    "population": 1132686
  },
  {
    "city_slug": "baku",
    "city_name_ar": "باكو",
    "city_name_en": "Baku",
    "country_slug": "azerbaijan",
    "country_code": "AZ",
    "country_name_ar": "أذربيجان",
    "country_name_en": "Azerbaijan",
    "timezone": "Asia/Baku",
    "lat": 40.37767,
    "lon": 49.89201,
    "is_capital": true,
    "priority": 1116513,
    "population": 1116513
  },
  {
    "city_slug": "lilongwe",
    "city_name_ar": "ليلونغوي",
    "city_name_en": "Lilongwe",
    "country_slug": "malawi",
    "country_code": "MW",
    "country_name_ar": "ملاوي",
    "country_name_en": "Malawi",
    "timezone": "Africa/Blantyre",
    "lat": -13.96692,
    "lon": 33.78725,
    "is_capital": true,
    "priority": 1115815,
    "population": 1115815
  },
  {
    "city_slug": "oslo",
    "city_name_ar": "أوسلو",
    "city_name_en": "Oslo",
    "country_slug": "norway",
    "country_code": "NO",
    "country_name_ar": "النرويج",
    "country_name_en": "Norway",
    "timezone": "Europe/Oslo",
    "lat": 59.91273,
    "lon": 10.74609,
    "is_capital": true,
    "priority": 1082575,
    "population": 1082575
  },
  {
    "city_slug": "tbilisi",
    "city_name_ar": "تبليسي",
    "city_name_en": "Tbilisi",
    "country_slug": "georgia",
    "country_code": "GE",
    "country_name_ar": "جورجيا",
    "country_name_en": "Georgia",
    "timezone": "Asia/Tbilisi",
    "lat": 41.69143,
    "lon": 44.83412,
    "is_capital": true,
    "priority": 1049498,
    "population": 1049498
  },
  {
    "city_slug": "dublin",
    "city_name_ar": "دبلن",
    "city_name_en": "Dublin",
    "country_slug": "ireland",
    "country_code": "IE",
    "country_name_ar": "جمهورية أيرلندا",
    "country_name_en": "Ireland",
    "timezone": "Europe/Dublin",
    "lat": 53.33306,
    "lon": -6.24889,
    "is_capital": true,
    "priority": 1024027,
    "population": 1024027
  },
  {
    "city_slug": "brussels",
    "city_name_ar": "بروكسل",
    "city_name_en": "Brussels",
    "country_slug": "belgium",
    "country_code": "BE",
    "country_name_ar": "بلجيكا",
    "country_name_en": "Belgium",
    "timezone": "Europe/Brussels",
    "lat": 50.85045,
    "lon": 4.34878,
    "is_capital": true,
    "priority": 1019022,
    "population": 1019022
  },
  {
    "city_slug": "ottawa",
    "city_name_ar": "أوتاوا",
    "city_name_en": "Ottawa",
    "country_slug": "canada",
    "country_code": "CA",
    "country_name_ar": "كندا",
    "country_name_en": "Canada",
    "timezone": "America/Toronto",
    "lat": 45.41117,
    "lon": -75.69812,
    "is_capital": true,
    "priority": 1017449,
    "population": 1017449
  },
  {
    "city_slug": "guatemala-city",
    "city_name_ar": "مدينة غواتيمالا",
    "city_name_en": "Guatemala City",
    "country_slug": "guatemala",
    "country_code": "GT",
    "country_name_ar": "غواتيمالا",
    "country_name_en": "Guatemala",
    "timezone": "America/Guatemala",
    "lat": 14.64072,
    "lon": -90.51327,
    "is_capital": true,
    "priority": 994938,
    "population": 994938
  },
  {
    "city_slug": "managua",
    "city_name_ar": "ماناغوا",
    "city_name_en": "Managua",
    "country_slug": "nicaragua",
    "country_code": "NI",
    "country_name_ar": "نيكاراغوا",
    "country_name_en": "Nicaragua",
    "timezone": "America/Managua",
    "lat": 12.13282,
    "lon": -86.2504,
    "is_capital": true,
    "priority": 973087,
    "population": 973087
  },
  {
    "city_slug": "jerusalem",
    "city_name_ar": "القدس",
    "city_name_en": "Jerusalem",
    "country_slug": "israel",
    "country_code": "IL",
    "country_name_ar": "إسرائيل",
    "country_name_en": "Israel",
    "timezone": "Asia/Jerusalem",
    "lat": 31.76904,
    "lon": 35.21633,
    "is_capital": true,
    "priority": 971800,
    "population": 971800
  },
  {
    "city_slug": "kingston",
    "city_name_ar": "كينغستون",
    "city_name_en": "Kingston",
    "country_slug": "jamaica",
    "country_code": "JM",
    "country_name_ar": "جامايكا",
    "country_name_en": "Jamaica",
    "timezone": "America/Jamaica",
    "lat": 17.99702,
    "lon": -76.79358,
    "is_capital": true,
    "priority": 937700,
    "population": 937700
  },
  {
    "city_slug": "nay-pyi-taw",
    "city_name_ar": "نايبيداو",
    "city_name_en": "Nay Pyi Taw",
    "country_slug": "myanmar",
    "country_code": "MM",
    "country_name_ar": "ميانمار",
    "country_name_en": "Myanmar",
    "timezone": "Asia/Yangon",
    "lat": 19.745,
    "lon": 96.12972,
    "is_capital": true,
    "priority": 925000,
    "population": 925000
  },
  {
    "city_slug": "bishkek",
    "city_name_ar": "بيشكك",
    "city_name_en": "Bishkek",
    "country_slug": "kyrgyzstan",
    "country_code": "KG",
    "country_name_ar": "قرغيزستان",
    "country_name_en": "Kyrgyzstan",
    "timezone": "Asia/Bishkek",
    "lat": 42.87,
    "lon": 74.59,
    "is_capital": true,
    "priority": 900000,
    "population": 900000
  },
  {
    "city_slug": "tegucigalpa",
    "city_name_ar": "تيغوسيغالبا",
    "city_name_en": "Tegucigalpa",
    "country_slug": "honduras",
    "country_code": "HN",
    "country_name_ar": "هندوراس",
    "country_name_en": "Honduras",
    "timezone": "America/Tegucigalpa",
    "lat": 14.0818,
    "lon": -87.20681,
    "is_capital": true,
    "priority": 850848,
    "population": 850848
  },
  {
    "city_slug": "libreville",
    "city_name_ar": "ليبرفيل",
    "city_name_en": "Libreville",
    "country_slug": "gabon",
    "country_code": "GA",
    "country_name_ar": "الغابون",
    "country_name_en": "Gabon",
    "timezone": "Africa/Libreville",
    "lat": 0.39241,
    "lon": 9.45356,
    "is_capital": true,
    "priority": 846090,
    "population": 846090
  },
  {
    "city_slug": "ulan-bator",
    "city_name_ar": "أولان باتور",
    "city_name_en": "Ulan Bator",
    "country_slug": "mongolia",
    "country_code": "MN",
    "country_name_ar": "منغوليا",
    "country_name_en": "Mongolia",
    "timezone": "Asia/Ulaanbaatar",
    "lat": 47.90771,
    "lon": 106.88324,
    "is_capital": true,
    "priority": 844818,
    "population": 844818
  },
  {
    "city_slug": "bangui",
    "city_name_ar": "بنغي",
    "city_name_en": "Bangui",
    "country_slug": "central-african-republic",
    "country_code": "CF",
    "country_name_ar": "جمهورية إفريقيا الوسطى",
    "country_name_en": "Central African Republic",
    "timezone": "Africa/Bangui",
    "lat": 4.36122,
    "lon": 18.55496,
    "is_capital": true,
    "priority": 812407,
    "population": 812407
  },
  {
    "city_slug": "freetown",
    "city_name_ar": "فريتون",
    "city_name_en": "Freetown",
    "country_slug": "sierra-leone",
    "country_code": "SL",
    "country_name_ar": "سيراليون",
    "country_name_en": "Sierra Leone",
    "timezone": "Africa/Freetown",
    "lat": 8.48714,
    "lon": -13.2356,
    "is_capital": true,
    "priority": 802639,
    "population": 802639
  },
  {
    "city_slug": "muscat",
    "city_name_ar": "مسقط",
    "city_name_en": "Muscat",
    "country_slug": "oman",
    "country_code": "OM",
    "country_name_ar": "سلطنة عمان",
    "country_name_en": "Oman",
    "timezone": "Asia/Muscat",
    "lat": 23.58413,
    "lon": 58.40778,
    "is_capital": true,
    "priority": 797000,
    "population": 797000
  },
  {
    "city_slug": "dodoma",
    "city_name_ar": "دودوما",
    "city_name_en": "Dodoma",
    "country_slug": "tanzania",
    "country_code": "TZ",
    "country_name_ar": "تنزانيا",
    "country_name_en": "Tanzania",
    "timezone": "Africa/Dar_es_Salaam",
    "lat": -6.17221,
    "lon": 35.73947,
    "is_capital": true,
    "priority": 765179,
    "population": 765179
  },
  {
    "city_slug": "riga",
    "city_name_ar": "ريغا",
    "city_name_en": "Riga",
    "country_slug": "latvia",
    "country_code": "LV",
    "country_name_ar": "لاتفيا",
    "country_name_en": "Latvia",
    "timezone": "Europe/Riga",
    "lat": 56.946,
    "lon": 24.10589,
    "is_capital": true,
    "priority": 742572,
    "population": 742572
  },
  {
    "city_slug": "amsterdam",
    "city_name_ar": "أمستردام",
    "city_name_en": "Amsterdam",
    "country_slug": "the-netherlands",
    "country_code": "NL",
    "country_name_ar": "مملكة هولندا",
    "country_name_en": "The Netherlands",
    "timezone": "Europe/Amsterdam",
    "lat": 52.37403,
    "lon": 4.88969,
    "is_capital": true,
    "priority": 741636,
    "population": 741636
  },
  {
    "city_slug": "ashgabat",
    "city_name_ar": "عشق آباد",
    "city_name_en": "Ashgabat",
    "country_slug": "turkmenistan",
    "country_code": "TM",
    "country_name_ar": "تركمانستان",
    "country_name_en": "Turkmenistan",
    "timezone": "Asia/Ashgabat",
    "lat": 37.95,
    "lon": 58.38333,
    "is_capital": true,
    "priority": 727700,
    "population": 727700
  },
  {
    "city_slug": "sarajevo",
    "city_name_ar": "سراييفو",
    "city_name_en": "Sarajevo",
    "country_slug": "bosnia-and-herzegovina",
    "country_code": "BA",
    "country_name_ar": "البوسنة والهرسك",
    "country_name_en": "Bosnia and Herzegovina",
    "timezone": "Europe/Sarajevo",
    "lat": 43.84864,
    "lon": 18.35644,
    "is_capital": true,
    "priority": 696731,
    "population": 696731
  },
  {
    "city_slug": "tunis",
    "city_name_ar": "تونس",
    "city_name_en": "Tunis",
    "country_slug": "tunisia",
    "country_code": "TN",
    "country_name_ar": "تونس",
    "country_name_en": "Tunisia",
    "timezone": "Africa/Tunis",
    "lat": 36.81897,
    "lon": 10.16579,
    "is_capital": true,
    "priority": 693210,
    "population": 693210
  },
  {
    "city_slug": "washington",
    "city_name_ar": "واشنطن العاصمة",
    "city_name_en": "Washington",
    "country_slug": "united-states",
    "country_code": "US",
    "country_name_ar": "الولايات المتحدة",
    "country_name_en": "United States",
    "timezone": "America/New_York",
    "lat": 38.89511,
    "lon": -77.03637,
    "is_capital": true,
    "priority": 689545,
    "population": 689545
  },
  {
    "city_slug": "dushanbe",
    "city_name_ar": "دوشنبة",
    "city_name_en": "Dushanbe",
    "country_slug": "tajikistan",
    "country_code": "TJ",
    "country_name_ar": "طاجيكستان",
    "country_name_en": "Tajikistan",
    "timezone": "Asia/Dushanbe",
    "lat": 38.53575,
    "lon": 68.77905,
    "is_capital": true,
    "priority": 679400,
    "population": 679400
  },
  {
    "city_slug": "athens",
    "city_name_ar": "أثينا",
    "city_name_en": "Athens",
    "country_slug": "greece",
    "country_code": "GR",
    "country_name_ar": "اليونان",
    "country_name_en": "Greece",
    "timezone": "Europe/Athens",
    "lat": 37.98376,
    "lon": 23.72784,
    "is_capital": true,
    "priority": 664046,
    "population": 664046
  },
  {
    "city_slug": "zagreb",
    "city_name_ar": "زغرب",
    "city_name_en": "Zagreb",
    "country_slug": "croatia",
    "country_code": "HR",
    "country_name_ar": "كرواتيا",
    "country_name_en": "Croatia",
    "timezone": "Europe/Zagreb",
    "lat": 45.81444,
    "lon": 15.97798,
    "is_capital": true,
    "priority": 663592,
    "population": 663592
  },
  {
    "city_slug": "helsinki",
    "city_name_ar": "هلسنكي",
    "city_name_en": "Helsinki",
    "country_slug": "finland",
    "country_code": "FI",
    "country_name_ar": "فنلندا",
    "country_name_en": "Finland",
    "timezone": "Europe/Helsinki",
    "lat": 60.16952,
    "lon": 24.93545,
    "is_capital": true,
    "priority": 658864,
    "population": 658864
  },
  {
    "city_slug": "macau",
    "city_name_ar": "ماكاو",
    "city_name_en": "Macau",
    "country_slug": "macao",
    "country_code": "MO",
    "country_name_ar": "ماكاو",
    "country_name_en": "Macao",
    "timezone": "Asia/Macau",
    "lat": 22.20056,
    "lon": 113.54611,
    "is_capital": true,
    "priority": 649335,
    "population": 649335
  },
  {
    "city_slug": "colombo",
    "city_name_ar": "كولمبو",
    "city_name_en": "Colombo",
    "country_slug": "sri-lanka",
    "country_code": "LK",
    "country_name_ar": "سريلانكا",
    "country_name_en": "Sri Lanka",
    "timezone": "Asia/Colombo",
    "lat": 6.93548,
    "lon": 79.84868,
    "is_capital": true,
    "priority": 648034,
    "population": 648034
  },
  {
    "city_slug": "chisinau",
    "city_name_ar": "كيشيناو",
    "city_name_en": "Chisinau",
    "country_slug": "moldova",
    "country_code": "MD",
    "country_name_ar": "مولدوفا",
    "country_name_en": "Moldova",
    "timezone": "Europe/Chisinau",
    "lat": 47.00902,
    "lon": 28.85938,
    "is_capital": true,
    "priority": 635994,
    "population": 635994
  },
  {
    "city_slug": "djibouti",
    "city_name_ar": "جيبوتي",
    "city_name_en": "Djibouti",
    "country_slug": "djibouti",
    "country_code": "DJ",
    "country_name_ar": "جيبوتي",
    "country_name_en": "Djibouti",
    "timezone": "Africa/Djibouti",
    "lat": 11.58901,
    "lon": 43.14503,
    "is_capital": true,
    "priority": 626512,
    "population": 626512
  },
  {
    "city_slug": "islamabad",
    "city_name_ar": "إسلام آباد",
    "city_name_en": "Islamabad",
    "country_slug": "pakistan",
    "country_code": "PK",
    "country_name_ar": "باكستان",
    "country_name_en": "Pakistan",
    "timezone": "Asia/Karachi",
    "lat": 33.72148,
    "lon": 73.04329,
    "is_capital": true,
    "priority": 601600,
    "population": 601600
  },
  {
    "city_slug": "asmara",
    "city_name_ar": "أسمرة",
    "city_name_en": "Asmara",
    "country_slug": "eritrea",
    "country_code": "ER",
    "country_name_ar": "إرتريا",
    "country_name_en": "Eritrea",
    "timezone": "Africa/Asmara",
    "lat": 15.33805,
    "lon": 38.93184,
    "is_capital": true,
    "priority": 563930,
    "population": 563930
  },
  {
    "city_slug": "pristina",
    "city_name_ar": "بريشتينا",
    "city_name_en": "Pristina",
    "country_slug": "kosovo",
    "country_code": "XK",
    "country_name_ar": "كوسوفو",
    "country_name_en": "Kosovo",
    "timezone": "Europe/Belgrade",
    "lat": 42.67272,
    "lon": 21.16688,
    "is_capital": true,
    "priority": 550000,
    "population": 550000
  },
  {
    "city_slug": "vilnius",
    "city_name_ar": "فيلنيوس",
    "city_name_en": "Vilnius",
    "country_slug": "lithuania",
    "country_code": "LT",
    "country_name_ar": "لتوانيا",
    "country_name_en": "Lithuania",
    "timezone": "Europe/Vilnius",
    "lat": 54.68916,
    "lon": 25.2798,
    "is_capital": true,
    "priority": 542366,
    "population": 542366
  },
  {
    "city_slug": "san-salvador",
    "city_name_ar": "سان سلفادور",
    "city_name_en": "San Salvador",
    "country_slug": "el-salvador",
    "country_code": "SV",
    "country_name_ar": "السلفادور",
    "country_name_en": "El Salvador",
    "timezone": "America/El_Salvador",
    "lat": 13.68935,
    "lon": -89.18718,
    "is_capital": true,
    "priority": 525990,
    "population": 525990
  },
  {
    "city_slug": "lisbon",
    "city_name_ar": "لشبونة",
    "city_name_en": "Lisbon",
    "country_slug": "portugal",
    "country_code": "PT",
    "country_name_ar": "البرتغال",
    "country_name_en": "Portugal",
    "timezone": "Europe/Lisbon",
    "lat": 38.72509,
    "lon": -9.1498,
    "is_capital": true,
    "priority": 517802,
    "population": 517802
  },
  {
    "city_slug": "skopje",
    "city_name_ar": "إسكوبية",
    "city_name_en": "Skopje",
    "country_slug": "north-macedonia",
    "country_code": "MK",
    "country_name_ar": "مقدونيا الشمالية",
    "country_name_en": "North Macedonia",
    "timezone": "Europe/Skopje",
    "lat": 41.99646,
    "lon": 21.43141,
    "is_capital": true,
    "priority": 474889,
    "population": 474889
  },
  {
    "city_slug": "juba",
    "city_name_ar": "جوبا",
    "city_name_en": "Juba",
    "country_slug": "south-sudan",
    "country_code": "SS",
    "country_name_ar": "جنوب السودان",
    "country_name_en": "South Sudan",
    "timezone": "Africa/Juba",
    "lat": 4.85165,
    "lon": 31.58247,
    "is_capital": true,
    "priority": 450000,
    "population": 450000
  },
  {
    "city_slug": "bissau",
    "city_name_ar": "بيساو",
    "city_name_en": "Bissau",
    "country_slug": "guinea-bissau",
    "country_code": "GW",
    "country_name_ar": "غينيا بيساو",
    "country_name_en": "Guinea-Bissau",
    "timezone": "Africa/Bissau",
    "lat": 11.86357,
    "lon": -15.59767,
    "is_capital": true,
    "priority": 439704,
    "population": 439704
  },
  {
    "city_slug": "east-jerusalem",
    "city_name_ar": "القدس الشرقية",
    "city_name_en": "East Jerusalem",
    "country_slug": "palestinian-territory",
    "country_code": "PS",
    "country_name_ar": "دولة فلسطين",
    "country_name_en": "Palestinian Territory",
    "timezone": "Asia/Hebron",
    "lat": 31.78336,
    "lon": 35.23388,
    "is_capital": true,
    "priority": 428304,
    "population": 428304
  },
  {
    "city_slug": "bratislava",
    "city_name_ar": "براتيسلافا",
    "city_name_en": "Bratislava",
    "country_slug": "slovakia",
    "country_code": "SK",
    "country_name_ar": "سلوفاكيا",
    "country_name_en": "Slovakia",
    "timezone": "Europe/Bratislava",
    "lat": 48.14816,
    "lon": 17.10674,
    "is_capital": true,
    "priority": 423737,
    "population": 423737
  },
  {
    "city_slug": "tirana",
    "city_name_ar": "تيرانا",
    "city_name_en": "Tirana",
    "country_slug": "albania",
    "country_code": "AL",
    "country_name_ar": "ألبانيا",
    "country_name_en": "Albania",
    "timezone": "Europe/Tirane",
    "lat": 41.32744,
    "lon": 19.81866,
    "is_capital": true,
    "priority": 418495,
    "population": 418495
  },
  {
    "city_slug": "san-juan",
    "city_name_ar": "سان خوان",
    "city_name_en": "San Juan",
    "country_slug": "puerto-rico",
    "country_code": "PR",
    "country_name_ar": "بورتوريكو",
    "country_name_en": "Puerto Rico",
    "timezone": "America/Puerto_Rico",
    "lat": 18.46633,
    "lon": -66.10572,
    "is_capital": true,
    "priority": 418140,
    "population": 418140
  },
  {
    "city_slug": "panama",
    "city_name_ar": "مدينة بنما",
    "city_name_en": "Panama",
    "country_slug": "panama",
    "country_code": "PA",
    "country_name_ar": "بنما",
    "country_name_en": "Panama",
    "timezone": "America/Panama",
    "lat": 8.9936,
    "lon": -79.51973,
    "is_capital": true,
    "priority": 408168,
    "population": 408168
  },
  {
    "city_slug": "tallinn",
    "city_name_ar": "تالين",
    "city_name_en": "Tallinn",
    "country_slug": "estonia",
    "country_code": "EE",
    "country_name_ar": "إستونيا",
    "country_name_en": "Estonia",
    "timezone": "Europe/Tallinn",
    "lat": 59.43696,
    "lon": 24.75353,
    "is_capital": true,
    "priority": 394024,
    "population": 394024
  },
  {
    "city_slug": "windhoek",
    "city_name_ar": "ويندهوك",
    "city_name_en": "Windhoek",
    "country_slug": "namibia",
    "country_code": "NA",
    "country_name_ar": "ناميبيا",
    "country_name_en": "Namibia",
    "timezone": "Africa/Windhoek",
    "lat": -22.55941,
    "lon": 17.08323,
    "is_capital": true,
    "priority": 386219,
    "population": 386219
  },
  {
    "city_slug": "wellington",
    "city_name_ar": "ويلينغتون",
    "city_name_en": "Wellington",
    "country_slug": "new-zealand",
    "country_code": "NZ",
    "country_name_ar": "نيوزيلندا",
    "country_name_en": "New Zealand",
    "timezone": "Pacific/Auckland",
    "lat": -41.28664,
    "lon": 174.77557,
    "is_capital": true,
    "priority": 381900,
    "population": 381900
  },
  {
    "city_slug": "canberra",
    "city_name_ar": "كانبرا",
    "city_name_en": "Canberra",
    "country_slug": "australia",
    "country_code": "AU",
    "country_name_ar": "أستراليا",
    "country_name_en": "Australia",
    "timezone": "Australia/Sydney",
    "lat": -35.28346,
    "lon": 149.12807,
    "is_capital": true,
    "priority": 367752,
    "population": 367752
  },
  {
    "city_slug": "maseru",
    "city_name_ar": "ماسيرو",
    "city_name_en": "Maseru",
    "country_slug": "lesotho",
    "country_code": "LS",
    "country_name_ar": "ليسوتو",
    "country_name_en": "Lesotho",
    "timezone": "Africa/Maseru",
    "lat": -29.31667,
    "lon": 27.48333,
    "is_capital": true,
    "priority": 359753,
    "population": 359753
  },
  {
    "city_slug": "astana",
    "city_name_ar": "أسطانا",
    "city_name_en": "Astana",
    "country_slug": "kazakhstan",
    "country_code": "KZ",
    "country_name_ar": "كازاخستان",
    "country_name_en": "Kazakhstan",
    "timezone": "Asia/Almaty",
    "lat": 51.1801,
    "lon": 71.44598,
    "is_capital": true,
    "priority": 345604,
    "population": 345604
  },
  {
    "city_slug": "doha",
    "city_name_ar": "الدوحة",
    "city_name_en": "Doha",
    "country_slug": "qatar",
    "country_code": "QA",
    "country_name_ar": "قطر",
    "country_name_en": "Qatar",
    "timezone": "Asia/Qatar",
    "lat": 25.28545,
    "lon": 51.53096,
    "is_capital": true,
    "priority": 344939,
    "population": 344939
  },
  {
    "city_slug": "san-jose",
    "city_name_ar": "سان خوسيه (توضيح)",
    "city_name_en": "San Jose",
    "country_slug": "costa-rica",
    "country_code": "CR",
    "country_name_ar": "كوستاريكا",
    "country_name_en": "Costa Rica",
    "timezone": "America/Costa_Rica",
    "lat": 10.95192,
    "lon": -85.13572,
    "is_capital": true,
    "priority": 335007,
    "population": 335007
  },
  {
    "city_slug": "new-delhi",
    "city_name_ar": "دلهي الجديدة",
    "city_name_en": "New Delhi",
    "country_slug": "india",
    "country_code": "IN",
    "country_name_ar": "الهند",
    "country_name_en": "India",
    "timezone": "Asia/Kolkata",
    "lat": 28.62137,
    "lon": 77.2148,
    "is_capital": true,
    "priority": 317797,
    "population": 317797
  },
  {
    "city_slug": "port-moresby",
    "city_name_ar": "بورت مورسبي",
    "city_name_en": "Port Moresby",
    "country_slug": "papua-new-guinea",
    "country_code": "PG",
    "country_name_ar": "بابوا غينيا الجديدة",
    "country_name_en": "Papua New Guinea",
    "timezone": "Pacific/Port_Moresby",
    "lat": -9.47723,
    "lon": 147.15089,
    "is_capital": true,
    "priority": 283733,
    "population": 283733
  },
  {
    "city_slug": "yamoussoukro",
    "city_name_ar": "ياموسوكرو",
    "city_name_en": "Yamoussoukro",
    "country_slug": "ivory-coast",
    "country_code": "CI",
    "country_name_ar": "ساحل العاج",
    "country_name_en": "Ivory Coast",
    "timezone": "Africa/Abidjan",
    "lat": 6.82055,
    "lon": -5.27674,
    "is_capital": true,
    "priority": 275686,
    "population": 275686
  },
  {
    "city_slug": "ljubljana",
    "city_name_ar": "ليوبليانا",
    "city_name_en": "Ljubljana",
    "country_slug": "slovenia",
    "country_code": "SI",
    "country_name_ar": "سلوفينيا",
    "country_name_en": "Slovenia",
    "timezone": "Europe/Ljubljana",
    "lat": 46.05108,
    "lon": 14.50513,
    "is_capital": true,
    "priority": 272220,
    "population": 272220
  },
  {
    "city_slug": "porto-novo",
    "city_name_ar": "بورتو نوفو",
    "city_name_en": "Porto-Novo",
    "country_slug": "benin",
    "country_code": "BJ",
    "country_name_ar": "بنين",
    "country_name_en": "Benin",
    "timezone": "Africa/Porto-Novo",
    "lat": 6.49646,
    "lon": 2.60359,
    "is_capital": true,
    "priority": 264320,
    "population": 264320
  },
  {
    "city_slug": "gaborone",
    "city_name_ar": "جابورون",
    "city_name_en": "Gaborone",
    "country_slug": "botswana",
    "country_code": "BW",
    "country_name_ar": "بوتسوانا",
    "country_name_en": "Botswana",
    "timezone": "Africa/Gaborone",
    "lat": -24.65451,
    "lon": 25.90859,
    "is_capital": true,
    "priority": 246325,
    "population": 246325
  },
  {
    "city_slug": "podgorica",
    "city_name_ar": "بودغوريتسا",
    "city_name_en": "Podgorica",
    "country_slug": "montenegro",
    "country_code": "ME",
    "country_name_ar": "الجبل الأسود",
    "country_name_en": "Montenegro",
    "timezone": "Europe/Podgorica",
    "lat": 42.44124,
    "lon": 19.26309,
    "is_capital": true,
    "priority": 236852,
    "population": 236852
  },
  {
    "city_slug": "georgetown",
    "city_name_ar": "جورج توغن",
    "city_name_en": "Georgetown",
    "country_slug": "guyana",
    "country_code": "GY",
    "country_name_ar": "غيانا",
    "country_name_en": "Guyana",
    "timezone": "America/Guyana",
    "lat": 6.80448,
    "lon": -58.15527,
    "is_capital": true,
    "priority": 235017,
    "population": 235017
  },
  {
    "city_slug": "nassau",
    "city_name_ar": "ناساو",
    "city_name_en": "Nassau",
    "country_slug": "bahamas",
    "country_code": "BS",
    "country_name_ar": "جزر البهاما",
    "country_name_en": "Bahamas",
    "timezone": "America/Nassau",
    "lat": 25.05823,
    "lon": -77.34306,
    "is_capital": true,
    "priority": 227940,
    "population": 227940
  },
  {
    "city_slug": "sucre",
    "city_name_ar": "سوكري",
    "city_name_en": "Sucre",
    "country_slug": "bolivia",
    "country_code": "BO",
    "country_name_ar": "بوليفيا",
    "country_name_en": "Bolivia",
    "timezone": "America/La_Paz",
    "lat": -19.03332,
    "lon": -65.26274,
    "is_capital": true,
    "priority": 224838,
    "population": 224838
  },
  {
    "city_slug": "paramaribo",
    "city_name_ar": "باراماريبو",
    "city_name_en": "Paramaribo",
    "country_slug": "suriname",
    "country_code": "SR",
    "country_name_ar": "سورينام",
    "country_name_en": "Suriname",
    "timezone": "America/Paramaribo",
    "lat": 5.86638,
    "lon": -55.16682,
    "is_capital": true,
    "priority": 223757,
    "population": 223757
  },
  {
    "city_slug": "nicosia",
    "city_name_ar": "نيقوسيا",
    "city_name_en": "Nicosia",
    "country_slug": "cyprus",
    "country_code": "CY",
    "country_name_ar": "قبرص",
    "country_name_en": "Cyprus",
    "timezone": "Asia/Nicosia",
    "lat": 35.17284,
    "lon": 33.35397,
    "is_capital": true,
    "priority": 200452,
    "population": 200452
  },
  {
    "city_slug": "vientiane",
    "city_name_ar": "فيينتيان",
    "city_name_en": "Vientiane",
    "country_slug": "laos",
    "country_code": "LA",
    "country_name_ar": "لاوس",
    "country_name_en": "Laos",
    "timezone": "Asia/Vientiane",
    "lat": 17.96667,
    "lon": 102.6,
    "is_capital": true,
    "priority": 196731,
    "population": 196731
  },
  {
    "city_slug": "port-louis",
    "city_name_ar": "بور لويس",
    "city_name_en": "Port Louis",
    "country_slug": "mauritius",
    "country_code": "MU",
    "country_name_ar": "موريشيوس",
    "country_name_en": "Mauritius",
    "timezone": "Indian/Mauritius",
    "lat": -20.16194,
    "lon": 57.49889,
    "is_capital": true,
    "priority": 155226,
    "population": 155226
  },
  {
    "city_slug": "saint-denis",
    "city_name_ar": "سان ديني",
    "city_name_en": "Saint-Denis",
    "country_slug": "reunion",
    "country_code": "RE",
    "country_name_ar": "ريونيون",
    "country_name_en": "Reunion",
    "timezone": "Indian/Reunion",
    "lat": -20.88231,
    "lon": 55.4504,
    "is_capital": true,
    "priority": 154765,
    "population": 154765
  },
  {
    "city_slug": "dili",
    "city_name_ar": "ديلي",
    "city_name_en": "Dili",
    "country_slug": "timor-leste",
    "country_code": "TL",
    "country_name_ar": "تيمور الشرقية",
    "country_name_en": "Timor Leste",
    "timezone": "Asia/Dili",
    "lat": -8.55861,
    "lon": 125.57361,
    "is_capital": true,
    "priority": 150000,
    "population": 150000
  },
  {
    "city_slug": "manama",
    "city_name_ar": "المنامة",
    "city_name_en": "Manama",
    "country_slug": "bahrain",
    "country_code": "BH",
    "country_name_ar": "البحرين",
    "country_name_en": "Bahrain",
    "timezone": "Asia/Bahrain",
    "lat": 26.22787,
    "lon": 50.58565,
    "is_capital": true,
    "priority": 147074,
    "population": 147074
  },
  {
    "city_slug": "praia",
    "city_name_ar": "برايا",
    "city_name_en": "Praia",
    "country_slug": "cabo-verde",
    "country_code": "CV",
    "country_name_ar": "الرأس الأخضر",
    "country_name_en": "Cabo Verde",
    "timezone": "Atlantic/Cape_Verde",
    "lat": 14.93152,
    "lon": -23.51254,
    "is_capital": true,
    "priority": 137868,
    "population": 137868
  },
  {
    "city_slug": "willemstad",
    "city_name_ar": "ويلمستاد",
    "city_name_en": "Willemstad",
    "country_slug": "curacao",
    "country_code": "CW",
    "country_name_ar": "كوراساو",
    "country_name_en": "Curacao",
    "timezone": "America/Curacao",
    "lat": 12.12246,
    "lon": -68.88641,
    "is_capital": true,
    "priority": 125000,
    "population": 125000
  },
  {
    "city_slug": "bern",
    "city_name_ar": "برن",
    "city_name_en": "Bern",
    "country_slug": "switzerland",
    "country_code": "CH",
    "country_name_ar": "سويسرا",
    "country_name_en": "Switzerland",
    "timezone": "Europe/Zurich",
    "lat": 46.94809,
    "lon": 7.44744,
    "is_capital": true,
    "priority": 121631,
    "population": 121631
  },
  {
    "city_slug": "reykjavik",
    "city_name_ar": "ريكيافيك",
    "city_name_en": "Reykjavik",
    "country_slug": "iceland",
    "country_code": "IS",
    "country_name_ar": "آيسلندا",
    "country_name_en": "Iceland",
    "timezone": "Atlantic/Reykjavik",
    "lat": 64.13548,
    "lon": -21.89541,
    "is_capital": true,
    "priority": 118918,
    "population": 118918
  },
  {
    "city_slug": "male",
    "city_name_ar": "ماليه",
    "city_name_en": "Male",
    "country_slug": "maldives",
    "country_code": "MV",
    "country_name_ar": "المالديف",
    "country_name_en": "Maldives",
    "timezone": "Indian/Maldives",
    "lat": 4.17521,
    "lon": 73.50916,
    "is_capital": true,
    "priority": 103693,
    "population": 103693
  },
  {
    "city_slug": "thimphu",
    "city_name_ar": "تيمفو",
    "city_name_en": "Thimphu",
    "country_slug": "bhutan",
    "country_code": "BT",
    "country_name_ar": "بوتان",
    "country_name_en": "Bhutan",
    "timezone": "Asia/Thimphu",
    "lat": 27.46609,
    "lon": 89.64191,
    "is_capital": true,
    "priority": 98676,
    "population": 98676
  },
  {
    "city_slug": "bridgetown",
    "city_name_ar": "بريدج تاون",
    "city_name_en": "Bridgetown",
    "country_slug": "barbados",
    "country_code": "BB",
    "country_name_ar": "باربادوس",
    "country_name_en": "Barbados",
    "timezone": "America/Barbados",
    "lat": 13.10732,
    "lon": -59.62021,
    "is_capital": true,
    "priority": 98511,
    "population": 98511
  },
  {
    "city_slug": "noumea",
    "city_name_ar": "نوميا",
    "city_name_en": "Noumea",
    "country_slug": "new-caledonia",
    "country_code": "NC",
    "country_name_ar": "كاليدونيا الجديدة",
    "country_name_en": "New Caledonia",
    "timezone": "Pacific/Noumea",
    "lat": -22.27407,
    "lon": 166.44884,
    "is_capital": true,
    "priority": 93060,
    "population": 93060
  },
  {
    "city_slug": "fort-de-france",
    "city_name_ar": "فور دو فرانس",
    "city_name_en": "Fort-de-France",
    "country_slug": "martinique",
    "country_code": "MQ",
    "country_name_ar": "مارتينيك",
    "country_name_en": "Martinique",
    "timezone": "America/Martinique",
    "lat": 14.60365,
    "lon": -61.07418,
    "is_capital": true,
    "priority": 89995,
    "population": 89995
  },
  {
    "city_slug": "suva",
    "city_name_ar": "سوفا",
    "city_name_en": "Suva",
    "country_slug": "fiji",
    "country_code": "FJ",
    "country_name_ar": "فيجي",
    "country_name_en": "Fiji",
    "timezone": "Pacific/Fiji",
    "lat": -18.13683,
    "lon": 178.42531,
    "is_capital": true,
    "priority": 77366,
    "population": 77366
  },
  {
    "city_slug": "luxembourg",
    "city_name_ar": "لوكسمبورغ",
    "city_name_en": "Luxembourg",
    "country_slug": "luxembourg",
    "country_code": "LU",
    "country_name_ar": "لوكسمبورغ",
    "country_name_en": "Luxembourg",
    "timezone": "Europe/Luxembourg",
    "lat": 49.60982,
    "lon": 6.13268,
    "is_capital": true,
    "priority": 76684,
    "population": 76684
  },
  {
    "city_slug": "mbabane",
    "city_name_ar": "مبابان",
    "city_name_en": "Mbabane",
    "country_slug": "eswatini",
    "country_code": "SZ",
    "country_name_ar": "إسواتيني",
    "country_name_en": "Eswatini",
    "timezone": "Africa/Mbabane",
    "lat": -26.31667,
    "lon": 31.13333,
    "is_capital": true,
    "priority": 76218,
    "population": 76218
  },
  {
    "city_slug": "moroni",
    "city_name_ar": "موروني",
    "city_name_en": "Moroni",
    "country_slug": "comoros",
    "country_code": "KM",
    "country_name_ar": "جزر القمر",
    "country_name_en": "Comoros",
    "timezone": "Indian/Comoro",
    "lat": -11.70216,
    "lon": 43.25506,
    "is_capital": true,
    "priority": 74749,
    "population": 74749
  },
  {
    "city_slug": "gitega",
    "city_name_ar": "غيتيغا",
    "city_name_en": "Gitega",
    "country_slug": "burundi",
    "country_code": "BI",
    "country_name_ar": "بوروندي",
    "country_name_en": "Burundi",
    "timezone": "Africa/Bujumbura",
    "lat": -3.42708,
    "lon": 29.92463,
    "is_capital": true,
    "priority": 64904,
    "population": 64904
  },
  {
    "city_slug": "bandar-seri-begawan",
    "city_name_ar": "بندر سري بكاوان",
    "city_name_en": "Bandar Seri Begawan",
    "country_slug": "brunei",
    "country_code": "BN",
    "country_name_ar": "بروناي",
    "country_name_en": "Brunei",
    "timezone": "Asia/Brunei",
    "lat": 4.89035,
    "lon": 114.94006,
    "is_capital": true,
    "priority": 64409,
    "population": 64409
  },
  {
    "city_slug": "cayenne",
    "city_name_ar": "كايين",
    "city_name_en": "Cayenne",
    "country_slug": "french-guiana",
    "country_code": "GF",
    "country_name_ar": "غويانا الفرنسية",
    "country_name_en": "French Guiana",
    "timezone": "America/Cayenne",
    "lat": 4.9381,
    "lon": -52.33455,
    "is_capital": true,
    "priority": 61550,
    "population": 61550
  },
  {
    "city_slug": "kuwait-city",
    "city_name_ar": "مدينة الكويت",
    "city_name_en": "Kuwait City",
    "country_slug": "kuwait",
    "country_code": "KW",
    "country_name_ar": "الكويت",
    "country_name_en": "Kuwait",
    "timezone": "Asia/Kuwait",
    "lat": 29.367,
    "lon": 47.97429,
    "is_capital": true,
    "priority": 60064,
    "population": 60064
  },
  {
    "city_slug": "honiara",
    "city_name_ar": "هونيارا",
    "city_name_en": "Honiara",
    "country_slug": "solomon-islands",
    "country_code": "SB",
    "country_name_ar": "جزر سليمان",
    "country_name_en": "Solomon Islands",
    "timezone": "Pacific/Guadalcanal",
    "lat": -9.43333,
    "lon": 159.95,
    "is_capital": true,
    "priority": 56298,
    "population": 56298
  },
  {
    "city_slug": "mamoudzou",
    "city_name_ar": "مامودزو",
    "city_name_en": "Mamoudzou",
    "country_slug": "mayotte",
    "country_code": "YT",
    "country_name_ar": "مايوت",
    "country_name_en": "Mayotte",
    "timezone": "Indian/Mayotte",
    "lat": -12.78234,
    "lon": 45.22878,
    "is_capital": true,
    "priority": 54831,
    "population": 54831
  },
  {
    "city_slug": "sao-tome",
    "city_name_ar": "ساو تومي",
    "city_name_en": "Sao Tome",
    "country_slug": "sao-tome-and-principe",
    "country_code": "ST",
    "country_name_ar": "ساو تومي وبرينسيب",
    "country_name_en": "Sao Tome and Principe",
    "timezone": "Africa/Sao_Tome",
    "lat": 0.33756,
    "lon": 6.7299,
    "is_capital": true,
    "priority": 53300,
    "population": 53300
  },
  {
    "city_slug": "saint-johns",
    "city_name_ar": "سانت جونز، أنتيغوا وبربودا",
    "city_name_en": "Saint John's",
    "country_slug": "antigua-and-barbuda",
    "country_code": "AG",
    "country_name_ar": "أنتيغوا وباربودا",
    "country_name_en": "Antigua and Barbuda",
    "timezone": "America/Antigua",
    "lat": 17.12096,
    "lon": -61.84329,
    "is_capital": true,
    "priority": 51737,
    "population": 51737
  },
  {
    "city_slug": "port-of-spain",
    "city_name_ar": "بورت أوف سبين",
    "city_name_en": "Port of Spain",
    "country_slug": "trinidad-and-tobago",
    "country_code": "TT",
    "country_name_ar": "ترينيداد وتوباغو",
    "country_name_en": "Trinidad and Tobago",
    "timezone": "America/Port_of_Spain",
    "lat": 10.66668,
    "lon": -61.51889,
    "is_capital": true,
    "priority": 49031,
    "population": 49031
  },
  {
    "city_slug": "saipan",
    "city_name_ar": "سايبان",
    "city_name_en": "Saipan",
    "country_slug": "northern-mariana-islands",
    "country_code": "MP",
    "country_name_ar": "جزر ماريانا الشمالية",
    "country_name_en": "Northern Mariana Islands",
    "timezone": "Pacific/Saipan",
    "lat": 15.21233,
    "lon": 145.7545,
    "is_capital": true,
    "priority": 48220,
    "population": 48220
  },
  {
    "city_slug": "apia",
    "city_name_ar": "أبيا",
    "city_name_en": "Apia",
    "country_slug": "samoa",
    "country_code": "WS",
    "country_name_ar": "ساموا",
    "country_name_en": "Samoa",
    "timezone": "Pacific/Apia",
    "lat": -13.83333,
    "lon": -171.76666,
    "is_capital": true,
    "priority": 40407,
    "population": 40407
  },
  {
    "city_slug": "tarawa",
    "city_name_ar": "تاراوا",
    "city_name_en": "Tarawa",
    "country_slug": "kiribati",
    "country_code": "KI",
    "country_name_ar": "كيريباتي",
    "country_name_en": "Kiribati",
    "timezone": "Pacific/Tarawa",
    "lat": 1.3278,
    "lon": 172.97696,
    "is_capital": true,
    "priority": 40311,
    "population": 40311
  },
  {
    "city_slug": "banjul",
    "city_name_ar": "بانجول",
    "city_name_en": "Banjul",
    "country_slug": "gambia",
    "country_code": "GM",
    "country_name_ar": "غامبيا",
    "country_name_en": "Gambia",
    "timezone": "Africa/Banjul",
    "lat": 13.45274,
    "lon": -16.57803,
    "is_capital": true,
    "priority": 37274,
    "population": 37274
  },
  {
    "city_slug": "port-vila",
    "city_name_ar": "بورت فيلا",
    "city_name_en": "Port-Vila",
    "country_slug": "vanuatu",
    "country_code": "VU",
    "country_name_ar": "فانواتو",
    "country_name_en": "Vanuatu",
    "timezone": "Pacific/Efate",
    "lat": -17.73648,
    "lon": 168.31366,
    "is_capital": true,
    "priority": 35901,
    "population": 35901
  },
  {
    "city_slug": "monaco",
    "city_name_ar": "موناكو",
    "city_name_en": "Monaco",
    "country_slug": "monaco",
    "country_code": "MC",
    "country_name_ar": "موناكو",
    "country_name_en": "Monaco",
    "timezone": "Europe/Monaco",
    "lat": 43.73718,
    "lon": 7.42145,
    "is_capital": true,
    "priority": 32965,
    "population": 32965
  },
  {
    "city_slug": "oranjestad",
    "city_name_ar": "أورنجستاد",
    "city_name_en": "Oranjestad",
    "country_slug": "aruba",
    "country_code": "AW",
    "country_name_ar": "أروبا",
    "country_name_en": "Aruba",
    "timezone": "America/Aruba",
    "lat": 12.52398,
    "lon": -70.02703,
    "is_capital": true,
    "priority": 29998,
    "population": 29998
  },
  {
    "city_slug": "george-town",
    "city_name_ar": "جورج تاون",
    "city_name_en": "George Town",
    "country_slug": "cayman-islands",
    "country_code": "KY",
    "country_name_ar": "جزر كايمان",
    "country_name_en": "Cayman Islands",
    "timezone": "America/Cayman",
    "lat": 19.2866,
    "lon": -81.37436,
    "is_capital": true,
    "priority": 29370,
    "population": 29370
  },
  {
    "city_slug": "saint-helier",
    "city_name_ar": "ساينت هيلير",
    "city_name_en": "Saint Helier",
    "country_slug": "jersey",
    "country_code": "JE",
    "country_name_ar": "جيرزي",
    "country_name_en": "Jersey",
    "timezone": "Europe/Jersey",
    "lat": 49.18804,
    "lon": -2.10491,
    "is_capital": true,
    "priority": 28000,
    "population": 28000
  },
  {
    "city_slug": "gibraltar",
    "city_name_ar": "جبل طارق",
    "city_name_en": "Gibraltar",
    "country_slug": "gibraltar",
    "country_code": "GI",
    "country_name_ar": "جبل طارق",
    "country_name_en": "Gibraltar",
    "timezone": "Europe/Gibraltar",
    "lat": 36.14474,
    "lon": -5.35257,
    "is_capital": true,
    "priority": 26544,
    "population": 26544
  },
  {
    "city_slug": "papeete",
    "city_name_ar": "بابيتي",
    "city_name_en": "Papeete",
    "country_slug": "french-polynesia",
    "country_code": "PF",
    "country_name_ar": "بولنيزيا الفرنسية",
    "country_name_en": "French Polynesia",
    "timezone": "Pacific/Tahiti",
    "lat": -17.5347,
    "lon": -149.56843,
    "is_capital": true,
    "priority": 26357,
    "population": 26357
  },
  {
    "city_slug": "douglas",
    "city_name_ar": "دوغلاس",
    "city_name_en": "Douglas",
    "country_slug": "isle-of-man",
    "country_code": "IM",
    "country_name_ar": "جزيرة مان",
    "country_name_en": "Isle of Man",
    "timezone": "Europe/Isle_of_Man",
    "lat": 54.15,
    "lon": -4.48333,
    "is_capital": true,
    "priority": 26218,
    "population": 26218
  },
  {
    "city_slug": "majuro",
    "city_name_ar": "ماجورو",
    "city_name_en": "Majuro",
    "country_slug": "marshall-islands",
    "country_code": "MH",
    "country_name_ar": "جزر مارشال",
    "country_name_en": "Marshall Islands",
    "timezone": "Pacific/Majuro",
    "lat": 7.08971,
    "lon": 171.38027,
    "is_capital": true,
    "priority": 25400,
    "population": 25400
  },
  {
    "city_slug": "kingstown",
    "city_name_ar": "كينغستاون",
    "city_name_en": "Kingstown",
    "country_slug": "saint-vincent-and-the-grenadines",
    "country_code": "VC",
    "country_name_ar": "سانت فينسنت والغرينادين",
    "country_name_en": "Saint Vincent and the Grenadines",
    "timezone": "America/St_Vincent",
    "lat": 13.15527,
    "lon": -61.22742,
    "is_capital": true,
    "priority": 24518,
    "population": 24518
  },
  {
    "city_slug": "victoria",
    "city_name_ar": "فيكتوريا",
    "city_name_en": "Victoria",
    "country_slug": "seychelles",
    "country_code": "SC",
    "country_name_ar": "سيشل",
    "country_name_en": "Seychelles",
    "timezone": "Indian/Mahe",
    "lat": -4.62001,
    "lon": 55.45501,
    "is_capital": true,
    "priority": 22881,
    "population": 22881
  },
  {
    "city_slug": "nukualofa",
    "city_name_ar": "نوكو ألوفا",
    "city_name_en": "Nuku'alofa",
    "country_slug": "tonga",
    "country_code": "TO",
    "country_name_ar": "تونغا",
    "country_name_en": "Tonga",
    "timezone": "Pacific/Tongatapu",
    "lat": -21.13683,
    "lon": -175.20114,
    "is_capital": true,
    "priority": 22400,
    "population": 22400
  },
  {
    "city_slug": "andorra-la-vella",
    "city_name_ar": "أندورا لا فيلا",
    "city_name_en": "Andorra la Vella",
    "country_slug": "andorra",
    "country_code": "AD",
    "country_name_ar": "أندورا",
    "country_name_en": "Andorra",
    "timezone": "Europe/Andorra",
    "lat": 42.50779,
    "lon": 1.52109,
    "is_capital": true,
    "priority": 20430,
    "population": 20430
  },
  {
    "city_slug": "charlotte-amalie",
    "city_name_ar": "شارلوت أمالي",
    "city_name_en": "Charlotte Amalie",
    "country_slug": "u.s.-virgin-islands",
    "country_code": "VI",
    "country_name_ar": "جزر العذراء الأمريكية",
    "country_name_en": "U.S. Virgin Islands",
    "timezone": "America/St_Thomas",
    "lat": 18.3419,
    "lon": -64.9307,
    "is_capital": true,
    "priority": 20000,
    "population": 20000
  },
  {
    "city_slug": "castries",
    "city_name_ar": "كاستريس",
    "city_name_en": "Castries",
    "country_slug": "saint-lucia",
    "country_code": "LC",
    "country_name_ar": "سانت لوسيا",
    "country_name_en": "Saint Lucia",
    "timezone": "America/St_Lucia",
    "lat": 13.9957,
    "lon": -61.00614,
    "is_capital": true,
    "priority": 20000,
    "population": 20000
  },
  {
    "city_slug": "roseau",
    "city_name_ar": "روسو",
    "city_name_en": "Roseau",
    "country_slug": "dominica",
    "country_code": "DM",
    "country_name_ar": "دومينيكا",
    "country_name_en": "Dominica",
    "timezone": "America/Dominica",
    "lat": 15.30174,
    "lon": -61.38808,
    "is_capital": true,
    "priority": 16571,
    "population": 16571
  },
  {
    "city_slug": "saint-peter-port",
    "city_name_ar": "سان بيتر بورت",
    "city_name_en": "Saint Peter Port",
    "country_slug": "guernsey",
    "country_code": "GG",
    "country_name_ar": "غيرنزي",
    "country_name_en": "Guernsey",
    "timezone": "Europe/Guernsey",
    "lat": 49.45981,
    "lon": -2.53527,
    "is_capital": true,
    "priority": 16488,
    "population": 16488
  },
  {
    "city_slug": "nuuk",
    "city_name_ar": "نوك",
    "city_name_en": "Nuuk",
    "country_slug": "greenland",
    "country_code": "GL",
    "country_name_ar": "غرينلاند",
    "country_name_en": "Greenland",
    "timezone": "America/Nuuk",
    "lat": 64.18347,
    "lon": -51.72157,
    "is_capital": true,
    "priority": 14798,
    "population": 14798
  },
  {
    "city_slug": "belmopan",
    "city_name_ar": "بلموبان",
    "city_name_en": "Belmopan",
    "country_slug": "belize",
    "country_code": "BZ",
    "country_name_ar": "بليز",
    "country_name_en": "Belize",
    "timezone": "America/Belize",
    "lat": 17.25376,
    "lon": -88.76401,
    "is_capital": true,
    "priority": 13381,
    "population": 13381
  },
  {
    "city_slug": "avarua",
    "city_name_ar": "آواروآ",
    "city_name_en": "Avarua",
    "country_slug": "cook-islands",
    "country_code": "CK",
    "country_name_ar": "جزر كوك",
    "country_name_en": "Cook Islands",
    "timezone": "Pacific/Rarotonga",
    "lat": -21.2075,
    "lon": -159.77546,
    "is_capital": true,
    "priority": 13373,
    "population": 13373
  },
  {
    "city_slug": "torshavn",
    "city_name_ar": "توشهافن",
    "city_name_en": "Torshavn",
    "country_slug": "faroe-islands",
    "country_code": "FO",
    "country_name_ar": "جزر فارو",
    "country_name_en": "Faroe Islands",
    "timezone": "Atlantic/Faroe",
    "lat": 62.00973,
    "lon": -6.77164,
    "is_capital": true,
    "priority": 13200,
    "population": 13200
  },
  {
    "city_slug": "basseterre",
    "city_name_ar": "باستير",
    "city_name_en": "Basseterre",
    "country_slug": "saint-kitts-and-nevis",
    "country_code": "KN",
    "country_name_ar": "سانت كيتس ونيفيس",
    "country_name_en": "Saint Kitts and Nevis",
    "timezone": "America/St_Kitts",
    "lat": 17.2955,
    "lon": -62.72499,
    "is_capital": true,
    "priority": 12920,
    "population": 12920
  },
  {
    "city_slug": "pago-pago",
    "city_name_ar": "باغو باغو",
    "city_name_en": "Pago Pago",
    "country_slug": "american-samoa",
    "country_code": "AS",
    "country_name_ar": "ساموا الأمريكية",
    "country_name_en": "American Samoa",
    "timezone": "Pacific/Pago_Pago",
    "lat": -14.27806,
    "lon": -170.7025,
    "is_capital": true,
    "priority": 11500,
    "population": 11500
  },
  {
    "city_slug": "basse-terre",
    "city_name_ar": "باس-تير",
    "city_name_en": "Basse-Terre",
    "country_slug": "guadeloupe",
    "country_code": "GP",
    "country_name_ar": "غوادلوب",
    "country_name_en": "Guadeloupe",
    "timezone": "America/Guadeloupe",
    "lat": 15.99714,
    "lon": -61.73214,
    "is_capital": true,
    "priority": 11472,
    "population": 11472
  },
  {
    "city_slug": "mariehamn",
    "city_name_ar": "ماريهامن",
    "city_name_en": "Mariehamn",
    "country_slug": "aland-islands",
    "country_code": "AX",
    "country_name_ar": "جزر أولاند",
    "country_name_en": "Aland Islands",
    "timezone": "Europe/Mariehamn",
    "lat": 60.09726,
    "lon": 19.93481,
    "is_capital": true,
    "priority": 10682,
    "population": 10682
  },
  {
    "city_slug": "kralendijk",
    "city_name_ar": "كراليندايك",
    "city_name_en": "Kralendijk",
    "country_slug": "bonaire",
    "country_code": "BQ",
    "country_name_ar": "Bonaire",
    "country_name_en": "-saint-eustatius-and-saba-",
    "timezone": "America/Kralendijk",
    "lat": 12.15,
    "lon": -68.26667,
    "is_capital": true,
    "priority": 10620,
    "population": 10620
  },
  {
    "city_slug": "road-town",
    "city_name_ar": "رود تاون",
    "city_name_en": "Road Town",
    "country_slug": "british-virgin-islands",
    "country_code": "VG",
    "country_name_ar": "جزر عذراء بريطانية",
    "country_name_en": "British Virgin Islands",
    "timezone": "America/Tortola",
    "lat": 18.42693,
    "lon": -64.62079,
    "is_capital": true,
    "priority": 8449,
    "population": 8449
  },
  {
    "city_slug": "saint-georges",
    "city_name_ar": "سانت جورجز",
    "city_name_en": "Saint George's",
    "country_slug": "grenada",
    "country_code": "GD",
    "country_name_ar": "غرنادة",
    "country_name_en": "Grenada",
    "timezone": "America/Grenada",
    "lat": 12.05288,
    "lon": -61.75226,
    "is_capital": true,
    "priority": 7500,
    "population": 7500
  },
  {
    "city_slug": "palikir",
    "city_name_ar": "باليكير",
    "city_name_en": "Palikir",
    "country_slug": "micronesia",
    "country_code": "FM",
    "country_name_ar": "ولايات ميكرونيسيا المتحدة",
    "country_name_en": "Micronesia",
    "timezone": "Pacific/Pohnpei",
    "lat": 6.92477,
    "lon": 158.16109,
    "is_capital": true,
    "priority": 6942,
    "population": 6942
  },
  {
    "city_slug": "valletta",
    "city_name_ar": "فاليتا",
    "city_name_en": "Valletta",
    "country_slug": "malta",
    "country_code": "MT",
    "country_name_ar": "مالطا",
    "country_name_en": "Malta",
    "timezone": "Europe/Malta",
    "lat": 35.89968,
    "lon": 14.5148,
    "is_capital": true,
    "priority": 6794,
    "population": 6794
  },
  {
    "city_slug": "funafuti",
    "city_name_ar": "فونافوتي",
    "city_name_en": "Funafuti",
    "country_slug": "tuvalu",
    "country_code": "TV",
    "country_name_ar": "توفالو",
    "country_name_en": "Tuvalu",
    "timezone": "Pacific/Funafuti",
    "lat": -8.52425,
    "lon": 179.19417,
    "is_capital": true,
    "priority": 6320,
    "population": 6320
  },
  {
    "city_slug": "saint-pierre",
    "city_name_ar": "سان بيير (سان بيير وميكلون)",
    "city_name_en": "Saint-Pierre",
    "country_slug": "saint-pierre-and-miquelon",
    "country_code": "PM",
    "country_name_ar": "سان بيير وميكلون",
    "country_name_en": "Saint Pierre and Miquelon",
    "timezone": "America/Miquelon",
    "lat": 46.77914,
    "lon": -56.1773,
    "is_capital": true,
    "priority": 6200,
    "population": 6200
  },
  {
    "city_slug": "gustavia",
    "city_name_ar": "غوستافيا، سانت بارتيليمي",
    "city_name_en": "Gustavia",
    "country_slug": "saint-barthelemy",
    "country_code": "BL",
    "country_name_ar": "سان بارتيلمي",
    "country_name_en": "Saint Barthelemy",
    "timezone": "America/St_Barthelemy",
    "lat": 17.89618,
    "lon": -62.84978,
    "is_capital": true,
    "priority": 5988,
    "population": 5988
  },
  {
    "city_slug": "marigot",
    "city_name_ar": "ماريجوت، سانت مارتن",
    "city_name_en": "Marigot",
    "country_slug": "saint-martin",
    "country_code": "MF",
    "country_name_ar": "تجمع سان مارتين",
    "country_name_en": "Saint Martin",
    "timezone": "America/Marigot",
    "lat": 18.06819,
    "lon": -63.08302,
    "is_capital": true,
    "priority": 5700,
    "population": 5700
  },
  {
    "city_slug": "vaduz",
    "city_name_ar": "فادوتس",
    "city_name_en": "Vaduz",
    "country_slug": "liechtenstein",
    "country_code": "LI",
    "country_name_ar": "ليختنشتاين",
    "country_name_en": "Liechtenstein",
    "timezone": "Europe/Vaduz",
    "lat": 47.14151,
    "lon": 9.52154,
    "is_capital": true,
    "priority": 5197,
    "population": 5197
  },
  {
    "city_slug": "shanghai",
    "city_name_ar": "شانغهاي",
    "city_name_en": "Shanghai",
    "country_slug": "china",
    "country_code": "CN",
    "country_name_ar": "الصين",
    "country_name_en": "China",
    "timezone": "Asia/Shanghai",
    "lat": 31.22222,
    "lon": 121.45806,
    "is_capital": false,
    "priority": 24874500,
    "population": 24874500
  },
  {
    "city_slug": "shenzhen",
    "city_name_ar": "شينزين",
    "city_name_en": "Shenzhen",
    "country_slug": "china",
    "country_code": "CN",
    "country_name_ar": "الصين",
    "country_name_en": "China",
    "timezone": "Asia/Shanghai",
    "lat": 22.54554,
    "lon": 114.0683,
    "is_capital": false,
    "priority": 17494398,
    "population": 17494398
  },
  {
    "city_slug": "guangzhou",
    "city_name_ar": "غوانزو",
    "city_name_en": "Guangzhou",
    "country_slug": "china",
    "country_code": "CN",
    "country_name_ar": "الصين",
    "country_name_en": "China",
    "timezone": "Asia/Shanghai",
    "lat": 23.11667,
    "lon": 113.25,
    "is_capital": false,
    "priority": 16096724,
    "population": 16096724
  },
  {
    "city_slug": "istanbul",
    "city_name_ar": "اسطنبول",
    "city_name_en": "Istanbul",
    "country_slug": "turkey",
    "country_code": "TR",
    "country_name_ar": "تركيا",
    "country_name_en": "Turkey",
    "timezone": "Europe/Istanbul",
    "lat": 41.01384,
    "lon": 28.94966,
    "is_capital": false,
    "priority": 15701602,
    "population": 15701602
  },
  {
    "city_slug": "lagos",
    "city_name_ar": "لاغوس",
    "city_name_en": "Lagos",
    "country_slug": "nigeria",
    "country_code": "NG",
    "country_name_ar": "نيجيريا",
    "country_name_en": "Nigeria",
    "timezone": "Africa/Lagos",
    "lat": 6.45407,
    "lon": 3.39467,
    "is_capital": false,
    "priority": 15388000,
    "population": 15388000
  },
  {
    "city_slug": "ho-chi-minh-city",
    "city_name_ar": "مدينة هو تشي مينه",
    "city_name_en": "Ho Chi Minh City",
    "country_slug": "vietnam",
    "country_code": "VN",
    "country_name_ar": "فيتنام",
    "country_name_en": "Vietnam",
    "timezone": "Asia/Ho_Chi_Minh",
    "lat": 10.82302,
    "lon": 106.62965,
    "is_capital": false,
    "priority": 14002598,
    "population": 14002598
  },
  {
    "city_slug": "chengdu",
    "city_name_ar": "تشنغدو",
    "city_name_en": "Chengdu",
    "country_slug": "china",
    "country_code": "CN",
    "country_name_ar": "الصين",
    "country_name_en": "China",
    "timezone": "Asia/Shanghai",
    "lat": 30.66667,
    "lon": 104.06667,
    "is_capital": false,
    "priority": 13568357,
    "population": 13568357
  },
  {
    "city_slug": "lahore",
    "city_name_ar": "لاهور",
    "city_name_en": "Lahore",
    "country_slug": "pakistan",
    "country_code": "PK",
    "country_name_ar": "باكستان",
    "country_name_en": "Pakistan",
    "timezone": "Asia/Karachi",
    "lat": 31.558,
    "lon": 74.35071,
    "is_capital": false,
    "priority": 13004135,
    "population": 13004135
  },
  {
    "city_slug": "mumbai",
    "city_name_ar": "مومباي",
    "city_name_en": "Mumbai",
    "country_slug": "india",
    "country_code": "IN",
    "country_name_ar": "الهند",
    "country_name_en": "India",
    "timezone": "Asia/Kolkata",
    "lat": 19.07283,
    "lon": 72.88261,
    "is_capital": false,
    "priority": 12691836,
    "population": 12691836
  },
  {
    "city_slug": "sao-paulo",
    "city_name_ar": "ساو باولو",
    "city_name_en": "Sao Paulo",
    "country_slug": "brazil",
    "country_code": "BR",
    "country_name_ar": "البرازيل",
    "country_name_en": "Brazil",
    "timezone": "America/Sao_Paulo",
    "lat": -23.5475,
    "lon": -46.63611,
    "is_capital": false,
    "priority": 12400232,
    "population": 12400232
  },
  {
    "city_slug": "karachi",
    "city_name_ar": "كراتشي",
    "city_name_en": "Karachi",
    "country_slug": "pakistan",
    "country_code": "PK",
    "country_name_ar": "باكستان",
    "country_name_en": "Pakistan",
    "timezone": "Asia/Karachi",
    "lat": 24.8608,
    "lon": 67.0104,
    "is_capital": false,
    "priority": 11624219,
    "population": 11624219
  },
  {
    "city_slug": "tianjin",
    "city_name_ar": "تيانجين",
    "city_name_en": "Tianjin",
    "country_slug": "china",
    "country_code": "CN",
    "country_name_ar": "الصين",
    "country_name_en": "China",
    "timezone": "Asia/Shanghai",
    "lat": 39.14222,
    "lon": 117.17667,
    "is_capital": false,
    "priority": 11090314,
    "population": 11090314
  },
  {
    "city_slug": "delhi",
    "city_name_ar": "دلهي",
    "city_name_en": "Delhi",
    "country_slug": "india",
    "country_code": "IN",
    "country_name_ar": "الهند",
    "country_name_en": "India",
    "timezone": "Asia/Kolkata",
    "lat": 28.65195,
    "lon": 77.23149,
    "is_capital": false,
    "priority": 11034555,
    "population": 11034555
  },
  {
    "city_slug": "wuhan",
    "city_name_ar": "ووهان",
    "city_name_en": "Wuhan",
    "country_slug": "china",
    "country_code": "CN",
    "country_name_ar": "الصين",
    "country_name_en": "China",
    "timezone": "Asia/Shanghai",
    "lat": 30.58333,
    "lon": 114.26667,
    "is_capital": false,
    "priority": 10392693,
    "population": 10392693
  },
  {
    "city_slug": "dongguan",
    "city_name_ar": "دونغقوان",
    "city_name_en": "Dongguan",
    "country_slug": "china",
    "country_code": "CN",
    "country_name_ar": "الصين",
    "country_name_en": "China",
    "timezone": "Asia/Shanghai",
    "lat": 23.01797,
    "lon": 113.74866,
    "is_capital": false,
    "priority": 9644871,
    "population": 9644871
  },
  {
    "city_slug": "xian",
    "city_name_ar": "شيان",
    "city_name_en": "Xi'an",
    "country_slug": "china",
    "country_code": "CN",
    "country_name_ar": "الصين",
    "country_name_en": "China",
    "timezone": "Asia/Shanghai",
    "lat": 34.25833,
    "lon": 108.92861,
    "is_capital": false,
    "priority": 9600000,
    "population": 9600000
  },
  {
    "city_slug": "johannesburg",
    "city_name_ar": "جوهانسبرغ",
    "city_name_en": "Johannesburg",
    "country_slug": "south-africa",
    "country_code": "ZA",
    "country_name_ar": "جنوب إفريقيا",
    "country_name_en": "South Africa",
    "timezone": "Africa/Johannesburg",
    "lat": -26.20227,
    "lon": 28.04363,
    "is_capital": false,
    "priority": 9418183,
    "population": 9418183
  },
  {
    "city_slug": "nanjing",
    "city_name_ar": "نانجينغ",
    "city_name_en": "Nanjing",
    "country_slug": "china",
    "country_code": "CN",
    "country_name_ar": "الصين",
    "country_name_en": "China",
    "timezone": "Asia/Shanghai",
    "lat": 32.06167,
    "lon": 118.77778,
    "is_capital": false,
    "priority": 9314685,
    "population": 9314685
  },
  {
    "city_slug": "hangzhou",
    "city_name_ar": "هانغتشو",
    "city_name_en": "Hangzhou",
    "country_slug": "china",
    "country_code": "CN",
    "country_name_ar": "الصين",
    "country_name_en": "China",
    "timezone": "Asia/Shanghai",
    "lat": 30.29365,
    "lon": 120.16142,
    "is_capital": false,
    "priority": 9236032,
    "population": 9236032
  },
  {
    "city_slug": "foshan",
    "city_name_ar": "فوشان",
    "city_name_en": "Foshan",
    "country_slug": "china",
    "country_code": "CN",
    "country_name_ar": "الصين",
    "country_name_en": "China",
    "timezone": "Asia/Shanghai",
    "lat": 23.02677,
    "lon": 113.13148,
    "is_capital": false,
    "priority": 9042509,
    "population": 9042509
  },
  {
    "city_slug": "new-york-city",
    "city_name_ar": "نيويورك",
    "city_name_en": "New York City",
    "country_slug": "united-states",
    "country_code": "US",
    "country_name_ar": "الولايات المتحدة",
    "country_name_en": "United States",
    "timezone": "America/New_York",
    "lat": 40.71427,
    "lon": -74.00597,
    "is_capital": false,
    "priority": 8804190,
    "population": 8804190
  },
  {
    "city_slug": "bengaluru",
    "city_name_ar": "بنغالور",
    "city_name_en": "Bengaluru",
    "country_slug": "india",
    "country_code": "IN",
    "country_name_ar": "الهند",
    "country_name_en": "India",
    "timezone": "Asia/Kolkata",
    "lat": 12.97194,
    "lon": 77.59369,
    "is_capital": false,
    "priority": 8495492,
    "population": 8495492
  },
  {
    "city_slug": "chongqing",
    "city_name_ar": "تشونغتشينغ",
    "city_name_en": "Chongqing",
    "country_slug": "china",
    "country_code": "CN",
    "country_name_ar": "الصين",
    "country_name_en": "China",
    "timezone": "Asia/Shanghai",
    "lat": 29.56026,
    "lon": 106.55771,
    "is_capital": false,
    "priority": 7457599,
    "population": 7457599
  },
  {
    "city_slug": "qingdao",
    "city_name_ar": "تشينغداو",
    "city_name_en": "Qingdao",
    "country_slug": "china",
    "country_code": "CN",
    "country_name_ar": "الصين",
    "country_name_en": "China",
    "timezone": "Asia/Shanghai",
    "lat": 36.06488,
    "lon": 120.38042,
    "is_capital": false,
    "priority": 7172451,
    "population": 7172451
  },
  {
    "city_slug": "shenyang",
    "city_name_ar": "شنيانغ",
    "city_name_en": "Shenyang",
    "country_slug": "china",
    "country_code": "CN",
    "country_name_ar": "الصين",
    "country_name_en": "China",
    "timezone": "Asia/Shanghai",
    "lat": 41.79222,
    "lon": 123.43278,
    "is_capital": false,
    "priority": 7050000,
    "population": 7050000
  },
  {
    "city_slug": "hyderabad",
    "city_name_ar": "حیدر آباد",
    "city_name_en": "Hyderabad",
    "country_slug": "india",
    "country_code": "IN",
    "country_name_ar": "الهند",
    "country_name_en": "India",
    "timezone": "Asia/Kolkata",
    "lat": 17.38405,
    "lon": 78.45636,
    "is_capital": false,
    "priority": 6993262,
    "population": 6993262
  },
  {
    "city_slug": "rio-de-janeiro",
    "city_name_ar": "ريو دي جانيرو",
    "city_name_en": "Rio de Janeiro",
    "country_slug": "brazil",
    "country_code": "BR",
    "country_name_ar": "البرازيل",
    "country_name_en": "Brazil",
    "timezone": "America/Sao_Paulo",
    "lat": -22.90642,
    "lon": -43.18223,
    "is_capital": false,
    "priority": 6747815,
    "population": 6747815
  },
  {
    "city_slug": "suzhou",
    "city_name_ar": "سوجو (مدينة)",
    "city_name_en": "Suzhou",
    "country_slug": "china",
    "country_code": "CN",
    "country_name_ar": "الصين",
    "country_name_en": "China",
    "timezone": "Asia/Shanghai",
    "lat": 33.63611,
    "lon": 116.97889,
    "is_capital": false,
    "priority": 6715559,
    "population": 6715559
  },
  {
    "city_slug": "ahmedabad",
    "city_name_ar": "أحمد آباد",
    "city_name_en": "Ahmedabad",
    "country_slug": "india",
    "country_code": "IN",
    "country_name_ar": "الهند",
    "country_name_en": "India",
    "timezone": "Asia/Kolkata",
    "lat": 23.02579,
    "lon": 72.58727,
    "is_capital": false,
    "priority": 6357693,
    "population": 6357693
  },
  {
    "city_slug": "abidjan",
    "city_name_ar": "أبيدجان",
    "city_name_en": "Abidjan",
    "country_slug": "ivory-coast",
    "country_code": "CI",
    "country_name_ar": "ساحل العاج",
    "country_name_en": "Ivory Coast",
    "timezone": "Africa/Abidjan",
    "lat": 5.35444,
    "lon": -4.00167,
    "is_capital": false,
    "priority": 6321017,
    "population": 6321017
  },
  {
    "city_slug": "sydney",
    "city_name_ar": "سيدني",
    "city_name_en": "Sydney",
    "country_slug": "australia",
    "country_code": "AU",
    "country_name_ar": "أستراليا",
    "country_name_en": "Australia",
    "timezone": "Australia/Sydney",
    "lat": -33.86785,
    "lon": 151.20732,
    "is_capital": false,
    "priority": 5557233,
    "population": 5557233
  },
  {
    "city_slug": "dar-es-salaam",
    "city_name_ar": "دار السلام",
    "city_name_en": "Dar es Salaam",
    "country_slug": "tanzania",
    "country_code": "TZ",
    "country_name_ar": "تنزانيا",
    "country_name_en": "Tanzania",
    "timezone": "Africa/Dar_es_Salaam",
    "lat": -6.82349,
    "lon": 39.26951,
    "is_capital": false,
    "priority": 5383728,
    "population": 5383728
  },
  {
    "city_slug": "saint-petersburg",
    "city_name_ar": "سانت بطرسبرغ",
    "city_name_en": "Saint Petersburg",
    "country_slug": "russia",
    "country_code": "RU",
    "country_name_ar": "روسيا",
    "country_name_en": "Russia",
    "timezone": "Europe/Moscow",
    "lat": 59.93863,
    "lon": 30.31413,
    "is_capital": false,
    "priority": 5351935,
    "population": 5351935
  },
  {
    "city_slug": "melbourne",
    "city_name_ar": "ملبورن",
    "city_name_en": "Melbourne",
    "country_slug": "australia",
    "country_code": "AU",
    "country_name_ar": "أستراليا",
    "country_name_en": "Australia",
    "timezone": "Australia/Melbourne",
    "lat": -37.814,
    "lon": 144.96332,
    "is_capital": false,
    "priority": 5350705,
    "population": 5350705
  },
  {
    "city_slug": "alexandria",
    "city_name_ar": "الإسكندرية",
    "city_name_en": "Alexandria",
    "country_slug": "egypt",
    "country_code": "EG",
    "country_name_ar": "مصر",
    "country_name_en": "Egypt",
    "timezone": "Africa/Cairo",
    "lat": 31.20176,
    "lon": 29.91582,
    "is_capital": false,
    "priority": 5263542,
    "population": 5263542
  },
  {
    "city_slug": "harbin",
    "city_name_ar": "هاربن",
    "city_name_en": "Harbin",
    "country_slug": "china",
    "country_code": "CN",
    "country_name_ar": "الصين",
    "country_name_en": "China",
    "timezone": "Asia/Shanghai",
    "lat": 45.75,
    "lon": 126.65,
    "is_capital": false,
    "priority": 5242897,
    "population": 5242897
  },
  {
    "city_slug": "hefei",
    "city_name_ar": "خفي",
    "city_name_en": "Hefei",
    "country_slug": "china",
    "country_code": "CN",
    "country_name_ar": "الصين",
    "country_name_en": "China",
    "timezone": "Asia/Shanghai",
    "lat": 31.86389,
    "lon": 117.28083,
    "is_capital": false,
    "priority": 5050000,
    "population": 5050000
  },
  {
    "city_slug": "dalian",
    "city_name_ar": "داليان",
    "city_name_en": "Dalian",
    "country_slug": "china",
    "country_code": "CN",
    "country_name_ar": "الصين",
    "country_name_en": "China",
    "timezone": "Asia/Shanghai",
    "lat": 38.91222,
    "lon": 121.60222,
    "is_capital": false,
    "priority": 4913879,
    "population": 4913879
  },
  {
    "city_slug": "kano",
    "city_name_ar": "كانو",
    "city_name_en": "Kano",
    "country_slug": "nigeria",
    "country_code": "NG",
    "country_name_ar": "نيجيريا",
    "country_name_en": "Nigeria",
    "timezone": "Africa/Lagos",
    "lat": 12.00012,
    "lon": 8.51672,
    "is_capital": false,
    "priority": 4910000,
    "population": 4910000
  },
  {
    "city_slug": "cape-town",
    "city_name_ar": "كيب تاون",
    "city_name_en": "Cape Town",
    "country_slug": "south-africa",
    "country_code": "ZA",
    "country_name_ar": "جنوب إفريقيا",
    "country_name_en": "South Africa",
    "timezone": "Africa/Johannesburg",
    "lat": -33.92584,
    "lon": 18.42322,
    "is_capital": false,
    "priority": 4772846,
    "population": 4772846
  },
  {
    "city_slug": "peshawar",
    "city_name_ar": "بيشاور",
    "city_name_en": "Peshawar",
    "country_slug": "pakistan",
    "country_code": "PK",
    "country_name_ar": "باكستان",
    "country_name_en": "Pakistan",
    "timezone": "Asia/Karachi",
    "lat": 34.008,
    "lon": 71.57849,
    "is_capital": false,
    "priority": 4758762,
    "population": 4758762
  },