[
  {
    "city_slug": "kinshasa",
    "city_name_ar": "كينشاسا",
    "city_name_en": "Kinshasa",
    "country_slug": "democratic-republic-of-the-congo",
    "country_code": "CD",
    "country_name_ar": "جمهورية الكونغو الديمقراطية",
    "country_name_en": "Democratic Republic of the Congo",
    "timezone": "Africa/Kinshasa",
    "lat": -4.32758,
    "lon": 15.31357,
    "is_capital": true,
    "priority": 16000000,
    "population": 16000000
  },
  {
    "city_slug": "lubumbashi",
    "city_name_ar": "لوبومباشي",
    "city_name_en": "Lubumbashi",
    "country_slug": "democratic-republic-of-the-congo",
    "country_code": "CD",
    "country_name_ar": "جمهورية الكونغو الديمقراطية",
    "country_name_en": "Democratic Republic of the Congo",
    "timezone": "Africa/Lubumbashi",
    "lat": -11.66089,
    "lon": 27.47938,
    "is_capital": false,
    "priority": 2221925,
    "population": 2221925
  },
  {
    "city_slug": "mbuji-mayi",
    "city_name_ar": "مبوجي-مايي",
    "city_name_en": "Mbuji-Mayi",
    "country_slug": "democratic-republic-of-the-congo",
    "country_code": "CD",
    "country_name_ar": "جمهورية الكونغو الديمقراطية",
    "country_name_en": "Democratic Republic of the Congo",
    "timezone": "Africa/Lubumbashi",
    "lat": -6.13603,
    "lon": 23.58979,
    "is_capital": false,
    "priority": 2101332,
    "population": 2101332
  },
  {
    "city_slug": "kananga",
    "city_name_ar": "كانانغا",
    "city_name_en": "Kananga",
    "country_slug": "democratic-republic-of-the-congo",
    "country_code": "CD",
    "country_name_ar": "جمهورية الكونغو الديمقراطية",
    "country_name_en": "Democratic Republic of the Congo",
    "timezone": "Africa/Lubumbashi",
    "lat": -5.89624,
    "lon": 22.41659,
    "is_capital": false,
    "priority": 1247168,
    "population": 1247168
  },
  {
    "city_slug": "kisangani",
    "city_name_ar": "كيسانغاني",
    "city_name_en": "Kisangani",
    "country_slug": "democratic-republic-of-the-congo",
    "country_code": "CD",
    "country_name_ar": "جمهورية الكونغو الديمقراطية",
    "country_name_en": "Democratic Republic of the Congo",
    "timezone": "Africa/Lubumbashi",
    "lat": 0.51528,
    "lon": 25.19099,
    "is_capital": false,
    "priority": 1181788,
    "population": 1181788
  },
  {
    "city_slug": "bukavu",
    "city_name_ar": "بوكافو",
    "city_name_en": "Bukavu",
    "country_slug": "democratic-republic-of-the-congo",
    "country_code": "CD",
    "country_name_ar": "جمهورية الكونغو الديمقراطية",
    "country_name_en": "Democratic Republic of the Congo",
    "timezone": "Africa/Lubumbashi",
    "lat": -2.49077,
    "lon": 28.84281,
    "is_capital": false,
    "priority": 816811,
    "population": 816811
  },
  {
    "city_slug": "kolwezi",
    "city_name_ar": "كولويزي",
    "city_name_en": "Kolwezi",
    "country_slug": "democratic-republic-of-the-congo",
    "country_code": "CD",
    "country_name_ar": "جمهورية الكونغو الديمقراطية",
    "country_name_en": "Democratic Republic of the Congo",
    "timezone": "Africa/Lubumbashi",
    "lat": -10.71484,
    "lon": 25.46674,
    "is_capital": false,
    "priority": 790248,
    "population": 790248
  },
  {
    "city_slug": "likasi",
    "city_name_ar": "ليكاسي",
    "city_name_en": "Likasi",
    "country_slug": "democratic-republic-of-the-congo",
    "country_code": "CD",
    "country_name_ar": "جمهورية الكونغو الديمقراطية",
    "country_name_en": "Democratic Republic of the Congo",
    "timezone": "Africa/Lubumbashi",
    "lat": -10.98303,
    "lon": 26.7384,
    "is_capital": false,
    "priority": 635768,
    "population": 635768
  },
  {
    "city_slug": "tshikapa",
    "city_name_ar": "تشيكابا",
    "city_name_en": "Tshikapa",
    "country_slug": "democratic-republic-of-the-congo",
    "country_code": "CD",
    "country_name_ar": "جمهورية الكونغو الديمقراطية",
    "country_name_en": "Democratic Republic of the Congo",
    "timezone": "Africa/Lubumbashi",
    "lat": -6.41621,
    "lon": 20.79995,
    "is_capital": false,
    "priority": 634529,
    "population": 634529
  }
]
