[
  {
    "city_slug": "baghdad",
    "city_name_ar": "بغداد",
    "city_name_en": "Baghdad",
    "country_slug": "iraq",
    "country_code": "IQ",
    "country_name_ar": "العراق",
    "country_name_en": "Iraq",
    "timezone": "Asia/Baghdad",
    "lat": 33.34058,
    "lon": 44.40088,
    "is_capital": true,
    "priority": 7216000,
    "population": 7216000
  },
  {
    "city_slug": "al-mawsil-al-jadidah",
    "city_name_ar": "الموصل الجديدة",
    "city_name_en": "Al Mawsil al Jadidah",
    "country_slug": "iraq",
    "country_code": "IQ",
    "country_name_ar": "العراق",
    "country_name_en": "Iraq",
    "timezone": "Asia/Baghdad",
    "lat": 36.33271,
    "lon": 43.10555,
    "is_capital": false,
    "priority": 2065597,
    "population": 2065597
  },
  {
    "city_slug": "al-basrah-al-qadimah",
    "city_name_ar": "البصرة القديمة",
    "city_name_en": "Al Basrah al Qadimah",
    "country_slug": "iraq",
    "country_code": "IQ",
    "country_name_ar": "العراق",
    "country_name_en": "Iraq",
    "timezone": "Asia/Baghdad",
    "lat": 30.50316,
    "lon": 47.81507,
    "is_capital": false,
    "priority": 2015483,
    "population": 2015483
  },
  {
    "city_slug": "mosul",
    "city_name_ar": "الموصل",
    "city_name_en": "Mosul",
    "country_slug": "iraq",
    "country_code": "IQ",
    "country_name_ar": "العراق",
    "country_name_en": "Iraq",
    "timezone": "Asia/Baghdad",
    "lat": 36.335,
    "lon": 43.11889,
    "is_capital": false,
    "priority": 1683000,
    "population": 1683000
  },
  {
    "city_slug": "erbil",
    "city_name_ar": "أربيل",
    "city_name_en": "Erbil",
    "country_slug": "iraq",
    "country_code": "IQ",
    "country_name_ar": "العراق",
    "country_name_en": "Iraq",
    "timezone": "Asia/Baghdad",
    "lat": 36.19117,
    "lon": 44.00943,
    "is_capital": false,
    "priority": 1612700,
    "population": 1612700
  },
  {
    "city_slug": "basrah",
    "city_name_ar": "بصرة",
    "city_name_en": "Basrah",
    "country_slug": "iraq",
    "country_code": "IQ",
    "country_name_ar": "العراق",
    "country_name_en": "Iraq",
    "timezone": "Asia/Baghdad",
    "lat": 30.50852,
    "lon": 47.7804,
    "is_capital": false,
    "priority": 1326564,
    "population": 1326564
  },
  {
    "city_slug": "karbala",
    "city_name_ar": "كربلاء",
    "city_name_en": "Karbala",
    "country_slug": "iraq",
    "country_code": "IQ",
    "country_name_ar": "العراق",
    "country_name_en": "Iraq",
    "timezone": "Asia/Baghdad",
    "lat": 32.61603,
    "lon": 44.02488,
    "is_capital": false,
    "priority": 1218732,
    "population": 1218732
  },
  {
    "city_slug": "kirkuk",
    "city_name_ar": "كركوك",
    "city_name_en": "Kirkuk",
    "country_slug": "iraq",
    "country_code": "IQ",
    "country_name_ar": "العراق",
    "country_name_en": "Iraq",
    "timezone": "Asia/Baghdad",
    "lat": 35.46806,
    "lon": 44.39222,
    "is_capital": false,
    "priority": 1031000,
    "population": 1031000
  },
  {
    "city_slug": "abu-ghurayb",
    "city_name_ar": "أبو غريب",
    "city_name_en": "Abu Ghurayb",
    "country_slug": "iraq",
    "country_code": "IQ",
    "country_name_ar": "العراق",
    "country_name_en": "Iraq",
    "timezone": "Asia/Baghdad",
    "lat": 33.30563,
    "lon": 44.18477,
    "is_capital": false,
    "priority": 900000,
    "population": 900000
  },
  {
    "city_slug": "sulaymaniyah",
    "city_name_ar": "السليمانية",
    "city_name_en": "Sulaymaniyah",
    "country_slug": "iraq",
    "country_code": "IQ",
    "country_name_ar": "العراق",
    "country_name_en": "Iraq",
    "timezone": "Asia/Baghdad",
    "lat": 35.56496,
    "lon": 45.4329,
    "is_capital": false,
    "priority": 878146,
    "population": 878146
  },
  {
    "city_slug": "nasiriyah",
    "city_name_ar": "الناصرية",
    "city_name_en": "Nasiriyah",
    "country_slug": "iraq",
    "country_code": "IQ",
    "country_name_ar": "العراق",
    "country_name_en": "Iraq",
    "timezone": "Asia/Baghdad",
    "lat": 31.05799,
    "lon": 46.25726,
    "is_capital": false,
    "priority": 558400,
    "population": 558400
  },
  {
    "city_slug": "najaf",
    "city_name_ar": "النجف",
    "city_name_en": "Najaf",
    "country_slug": "iraq",
    "country_code": "IQ",
    "country_name_ar": "العراق",
    "country_name_en": "Iraq",
    "timezone": "Asia/Baghdad",
    "lat": 32.02594,
    "lon": 44.34625,
    "is_capital": false,
    "priority": 482576,
    "population": 482576
  },
  {
    "city_slug": "al-hillah",
    "city_name_ar": "الحلة",
    "city_name_en": "Al Hillah",
    "country_slug": "iraq",
    "country_code": "IQ",
    "country_name_ar": "العراق",
    "country_name_en": "Iraq",
    "timezone": "Asia/Baghdad",
    "lat": 32.46367,
    "lon": 44.41963,
    "is_capital": false,
    "priority": 455700,
    "population": 455700
  }
]
