[
  {
    "city_slug": "mexico-city",
    "city_name_ar": "مدينة مكسيكو",
    "city_name_en": "Mexico City",
    "country_slug": "mexico",
    "country_code": "MX",
    "country_name_ar": "المكسيك",
    "country_name_en": "Mexico",
    "timezone": "America/Mexico_City",
    "lat": 19.42847,
    "lon": -99.12766,
    "is_capital": true,
    "priority": 12294193,
    "population": 12294193
  },
  {
    "city_slug": "tijuana",
    "city_name_ar": "تيخوانا",
    "city_name_en": "Tijuana",
    "country_slug": "mexico",
    "country_code": "MX",
    "country_name_ar": "المكسيك",
    "country_name_en": "Mexico",
    "timezone": "America/Tijuana",
    "lat": 32.5027,
    "lon": -117.00371,
    "is_capital": false,
    "priority": 1922523,
    "population": 1922523
  },
  {
    "city_slug": "iztapalapa",
    "city_name_ar": "يزتابالابا",
    "city_name_en": "Iztapalapa",
    "country_slug": "mexico",
    "country_code": "MX",
    "country_name_ar": "المكسيك",
    "country_name_en": "Mexico",
    "timezone": "America/Mexico_City",
    "lat": 19.35529,
    "lon": -99.06224,
    "is_capital": false,
    "priority": 1835486,
    "population": 1835486
  },
  {
    "city_slug": "puebla",
    "city_name_ar": "بويبلا",
    "city_name_en": "Puebla",
    "country_slug": "mexico",
    "country_code": "MX",
    "country_name_ar": "المكسيك",
    "country_name_en": "Mexico",
    "timezone": "America/Mexico_City",
    "lat": 19.04778,
    "lon": -98.20723,
    "is_capital": false,
    "priority": 1692181,
    "population": 1692181
  },
  {
    "city_slug": "ecatepec-de-morelos",
    "city_name_ar": "ايكاتيبيك دي موريلوس",
    "city_name_en": "Ecatepec de Morelos",
    "country_slug": "mexico",
    "country_code": "MX",
    "country_name_ar": "المكسيك",
    "country_name_en": "Mexico",
    "timezone": "America/Mexico_City",
    "lat": 19.60492,
    "lon": -99.06064,
    "is_capital": false,
    "priority": 1645352,
    "population": 1645352
  },
  {
    "city_slug": "santiago-de-queretaro",
    "city_name_ar": "مدينة كيريتارو",
    "city_name_en": "Santiago de Queretaro",
    "country_slug": "mexico",
    "country_code": "MX",
    "country_name_ar": "المكسيك",
    "country_name_en": "Mexico",
    "timezone": "America/Mexico_City",
    "lat": 20.58806,
    "lon": -100.38806,
    "is_capital": false,
    "priority": 1594212,
    "population": 1594212
  },
  {
    "city_slug": "leon-de-los-aldama",
    "city_name_ar": "ليون",
    "city_name_en": "Leon de los Aldama",
    "country_slug": "mexico",
    "country_code": "MX",
    "country_name_ar": "المكسيك",
    "country_name_en": "Mexico",
    "timezone": "America/Mexico_City",
    "lat": 21.12908,
    "lon": -101.67374,
    "is_capital": false,
    "priority": 1579803,
    "population": 1579803
  },
  {
    "city_slug": "ciudad-juarez",
    "city_name_ar": "سيوداد خواريز",
    "city_name_en": "Ciudad Juarez",
    "country_slug": "mexico",
    "country_code": "MX",
    "country_name_ar": "المكسيك",
    "country_name_en": "Mexico",
    "timezone": "America/Ciudad_Juarez",
    "lat": 31.72024,
    "lon": -106.46084,
    "is_capital": false,
    "priority": 1512450,
    "population": 1512450
  },
  {
    "city_slug": "zapopan",
    "city_name_ar": "سابوبان، خاليسكو",
    "city_name_en": "Zapopan",
    "country_slug": "mexico",
    "country_code": "MX",
    "country_name_ar": "المكسيك",
    "country_name_en": "Mexico",
    "timezone": "America/Mexico_City",
    "lat": 20.72111,
    "lon": -103.38742,
    "is_capital": false,
    "priority": 1476491,
    "population": 1476491
  },
  {
    "city_slug": "guadalajara",
    "city_name_ar": "غوادالاخارا",
    "city_name_en": "Guadalajara",
    "country_slug": "mexico",
    "country_code": "MX",
    "country_name_ar": "المكسيك",
    "country_name_en": "Mexico",
    "timezone": "America/Mexico_City",
    "lat": 20.67738,
    "lon": -103.34749,
    "is_capital": false,
    "priority": 1385629,
    "population": 1385629
  },
  {
    "city_slug": "merida",
    "city_name_ar": "ماردة",
    "city_name_en": "Merida",
    "country_slug": "mexico",
    "country_code": "MX",
    "country_name_ar": "المكسيك",
    "country_name_en": "Mexico",
    "timezone": "America/Merida",
    "lat": 20.967,
    "lon": -89.62318,
    "is_capital": false,
    "priority": 1201000,
    "population": 1201000
  },
  {
    "city_slug": "gustavo-adolfo-madero",
    "city_name_ar": "غوستافو ادولفو ماديرو",
    "city_name_en": "Gustavo Adolfo Madero",
    "country_slug": "mexico",
    "country_code": "MX",
    "country_name_ar": "المكسيك",
    "country_name_en": "Mexico",
    "timezone": "America/Mexico_City",
    "lat": 19.49392,
    "lon": -99.11075,
    "is_capital": false,
    "priority": 1185772,
    "population": 1185772
  },
  {
    "city_slug": "monterrey",
    "city_name_ar": "مونتيري",
    "city_name_en": "Monterrey",
    "country_slug": "mexico",
    "country_code": "MX",
    "country_name_ar": "المكسيك",
    "country_name_en": "Mexico",
    "timezone": "America/Monterrey",
    "lat": 25.68435,
    "lon": -100.31721,
    "is_capital": false,
    "priority": 1135512,
    "population": 1135512
  },
  {
    "city_slug": "ciudad-nezahualcoyotl",
    "city_name_ar": "سيوداد نيزاهوال كويوتل",
    "city_name_en": "Ciudad Nezahualcoyotl",
    "country_slug": "mexico",
    "country_code": "MX",
    "country_name_ar": "المكسيك",
    "country_name_en": "Mexico",
    "timezone": "America/Mexico_City",
    "lat": 19.40061,
    "lon": -99.01483,
    "is_capital": false,
    "priority": 1077208,
    "population": 1077208
  },
  {
    "city_slug": "mexicali",
    "city_name_ar": "مكسيكالي",
    "city_name_en": "Mexicali",
    "country_slug": "mexico",
    "country_code": "MX",
    "country_name_ar": "المكسيك",
    "country_name_en": "Mexico",
    "timezone": "America/Tijuana",
    "lat": 32.62781,
    "lon": -115.45446,
    "is_capital": false,
    "priority": 1032686,
    "population": 1032686
  },
  {
    "city_slug": "chihuahua",
    "city_name_ar": "تشيواوا",
    "city_name_en": "Chihuahua",
    "country_slug": "mexico",
    "country_code": "MX",
    "country_name_ar": "المكسيك",
    "country_name_en": "Mexico",
    "timezone": "America/Chihuahua",
    "lat": 28.63528,
    "lon": -106.08889,
    "is_capital": false,
    "priority": 925762,
    "population": 925762
  },
  {
    "city_slug": "cancun",
    "city_name_ar": "كانكون",
    "city_name_en": "Cancun",
    "country_slug": "mexico",
    "country_code": "MX",
    "country_name_ar": "المكسيك",
    "country_name_en": "Mexico",
    "timezone": "America/Cancun",
    "lat": 21.17429,
    "lon": -86.84656,
    "is_capital": false,
    "priority": 888797,
    "population": 888797
  },
  {
    "city_slug": "naucalpan-de-juarez",
    "city_name_ar": "ناوكالبان دي خواريز",
    "city_name_en": "Naucalpan de Juarez",
    "country_slug": "mexico",
    "country_code": "MX",
    "country_name_ar": "المكسيك",
    "country_name_en": "Mexico",
    "timezone": "America/Mexico_City",
    "lat": 19.47851,
    "lon": -99.23963,
    "is_capital": false,
    "priority": 834434,
    "population": 834434
  },
  {
    "city_slug": "hermosillo",
    "city_name_ar": "ارموسييو سونورا",
    "city_name_en": "Hermosillo",
    "country_slug": "mexico",
    "country_code": "MX",
    "country_name_ar": "المكسيك",
    "country_name_en": "Mexico",
    "timezone": "America/Hermosillo",
    "lat": 29.08874,
    "lon": -110.96677,
    "is_capital": false,
    "priority": 812229,
    "population": 812229
  },
  {
    "city_slug": "culiacan",
    "city_name_ar": "كولياكان",
    "city_name_en": "Culiacan",
    "country_slug": "mexico",
    "country_code": "MX",
    "country_name_ar": "المكسيك",
    "country_name_en": "Mexico",
    "timezone": "America/Mazatlan",
    "lat": 24.80209,
    "lon": -107.39421,
    "is_capital": false,
    "priority": 808416,
    "population": 808416
  },
  {
    "city_slug": "morelia",
    "city_name_ar": "موريليا",
    "city_name_en": "Morelia",
    "country_slug": "mexico",
    "country_code": "MX",
    "country_name_ar": "المكسيك",
    "country_name_en": "Mexico",
    "timezone": "America/Mexico_City",
    "lat": 19.70078,
    "lon": -101.18443,
    "is_capital": false,
    "priority": 743275,
    "population": 743275
  },
  {
    "city_slug": "torreon",
    "city_name_ar": "توريون",
    "city_name_en": "Torreon",
    "country_slug": "mexico",
    "country_code": "MX",
    "country_name_ar": "المكسيك",
    "country_name_en": "Mexico",
    "timezone": "America/Monterrey",
    "lat": 25.54389,
    "lon": -103.41898,
    "is_capital": false,
    "priority": 735340,
    "population": 735340
  },
  {
    "city_slug": "alvaro-obregon",
    "city_name_ar": "ألفارو أوبريغون",
    "city_name_en": "Alvaro Obregon",
    "country_slug": "mexico",
    "country_code": "MX",
    "country_name_ar": "المكسيك",
    "country_name_en": "Mexico",
    "timezone": "America/Mexico_City",
    "lat": 19.35867,
    "lon": -99.20329,
    "is_capital": false,
    "priority": 726664,
    "population": 726664
  },
  {
    "city_slug": "san-luis-potosi",
    "city_name_ar": "سان لويس بوتوسي",
    "city_name_en": "San Luis Potosi",
    "country_slug": "mexico",
    "country_code": "MX",
    "country_name_ar": "المكسيك",
    "country_name_en": "Mexico",
    "timezone": "America/Monterrey",
    "lat": 22.15234,
    "lon": -100.97135,
    "is_capital": false,
    "priority": 722772,
    "population": 722772
  },
  {
    "city_slug": "aguascalientes",
    "city_name_ar": "أغوسكلينتس",
    "city_name_en": "Aguascalientes",
    "country_slug": "mexico",
    "country_code": "MX",
    "country_name_ar": "المكسيك",
    "country_name_en": "Mexico",
    "timezone": "America/Mexico_City",
    "lat": 21.88262,
    "lon": -102.2843,
    "is_capital": false,
    "priority": 722250,
    "population": 722250
  },
  {
    "city_slug": "saltillo",
    "city_name_ar": "سالتيو",
    "city_name_en": "Saltillo",
    "country_slug": "mexico",
    "country_code": "MX",
    "country_name_ar": "المكسيك",
    "country_name_en": "Mexico",
    "timezone": "America/Monterrey",
    "lat": 25.42595,
    "lon": -100.97963,
    "is_capital": false,
    "priority": 709671,
    "population": 709671
  },
  {
    "city_slug": "guadalupe",
    "city_name_ar": "غوادالوبي، نويفو ليون",
    "city_name_en": "Guadalupe",
    "country_slug": "mexico",
    "country_code": "MX",
    "country_name_ar": "المكسيك",
    "country_name_en": "Mexico",
    "timezone": "America/Monterrey",
    "lat": 25.67678,
    "lon": -100.25646,
    "is_capital": false,
    "priority": 673616,
    "population": 673616
  },
  {
    "city_slug": "acapulco-de-juarez",
    "city_name_ar": "أكابولكو",
    "city_name_en": "Acapulco de Juarez",
    "country_slug": "mexico",
    "country_code": "MX",
    "country_name_ar": "المكسيك",
    "country_name_en": "Mexico",
    "timezone": "America/Mexico_City",
    "lat": 16.84942,
    "lon": -99.90891,
    "is_capital": false,
    "priority": 658609,
    "population": 658609
  },
  {
    "city_slug": "tlalnepantla",
    "city_name_ar": "تلانيبانتلا دي باز",
    "city_name_en": "Tlalnepantla",
    "country_slug": "mexico",
    "country_code": "MX",
    "country_name_ar": "المكسيك",
    "country_name_en": "Mexico",
    "timezone": "America/Mexico_City",
    "lat": 19.54005,
    "lon": -99.19538,
    "is_capital": false,
    "priority": 653410,
    "population": 653410
  },
  {
    "city_slug": "tlaquepaque",
    "city_name_ar": "تلاكيباكي",
    "city_name_en": "Tlaquepaque",
    "country_slug": "mexico",
    "country_code": "MX",
    "country_name_ar": "المكسيك",
    "country_name_en": "Mexico",
    "timezone": "America/Mexico_City",
    "lat": 20.64121,
    "lon": -103.29342,
    "is_capital": false,
    "priority": 650123,
    "population": 650123
  },
  {
    "city_slug": "coyoacan",
    "city_name_ar": "كويواكان",
    "city_name_en": "Coyoacan",
    "country_slug": "mexico",
    "country_code": "MX",
    "country_name_ar": "المكسيك",
    "country_name_en": "Mexico",
    "timezone": "America/Mexico_City",
    "lat": 19.3467,
    "lon": -99.16174,
    "is_capital": false,
    "priority": 614447,
    "population": 614447
  }
]
