[
  {
    "city_slug": "damascus",
    "city_name_ar": "دمشق",
    "city_name_en": "Damascus",
    "country_slug": "syria",
    "country_code": "SY",
    "country_name_ar": "سوريا",
    "country_name_en": "Syria",
    "timezone": "Asia/Damascus",
    "lat": 33.5102,
    "lon": 36.29128,
    "is_capital": true,
    "priority": 1569394,
    "population": 1569394
  },
  {
    "city_slug": "aleppo",
    "city_name_ar": "حلب",
    "city_name_en": "Aleppo",
    "country_slug": "syria",
    "country_code": "SY",
    "country_name_ar": "سوريا",
    "country_name_en": "Syria",
    "timezone": "Asia/Damascus",
    "lat": 36.20124,
    "lon": 37.16117,
    "is_capital": false,
    "priority": 2098210,
    "population": 2098210
  },
  {
    "city_slug": "homs",
    "city_name_ar": "حمص",
    "city_name_en": "Homs",
    "country_slug": "syria",
    "country_code": "SY",
    "country_name_ar": "سوريا",
    "country_name_en": "Syria",
    "timezone": "Asia/Damascus",
    "lat": 34.72405,
    "lon": 36.72559,
    "is_capital": false,
    "priority": 775404,
    "population": 775404
  },
  {
    "city_slug": "latakia",
    "city_name_ar": "لاذقية",
    "city_name_en": "Latakia",
    "country_slug": "syria",
    "country_code": "SY",
    "country_name_ar": "سوريا",
    "country_name_en": "Syria",
    "timezone": "Asia/Damascus",
    "lat": 35.53125,
    "lon": 35.79088,
    "is_capital": false,
    "priority": 709000,
    "population": 709000
  },
  {
    "city_slug": "ar-raqqah",
    "city_name_ar": "الرقة",
    "city_name_en": "Ar Raqqah",
    "country_slug": "syria",
    "country_code": "SY",
    "country_name_ar": "سوريا",
    "country_name_en": "Syria",
    "timezone": "Asia/Damascus",
    "lat": 35.95283,
    "lon": 39.00788,
    "is_capital": false,
    "priority": 531952,
    "population": 531952
  },
  {
    "city_slug": "hamah",
    "city_name_ar": "حماة",
    "city_name_en": "Hamah",
    "country_slug": "syria",
    "country_code": "SY",
    "country_name_ar": "سوريا",
    "country_name_en": "Syria",
    "timezone": "Asia/Damascus",
    "lat": 35.13179,
    "lon": 36.75783,
    "is_capital": false,
    "priority": 460602,
    "population": 460602
  },
  {
    "city_slug": "tartus",
    "city_name_ar": "طرطوس",
    "city_name_en": "Tartus",
    "country_slug": "syria",
    "country_code": "SY",
    "country_name_ar": "سوريا",
    "country_name_en": "Syria",
    "timezone": "Asia/Damascus",
    "lat": 34.88902,
    "lon": 35.88659,
    "is_capital": false,
    "priority": 458327,
    "population": 458327
  },
  {
    "city_slug": "al-hasakah",
    "city_name_ar": "الحسكة",
    "city_name_en": "Al Hasakah",
    "country_slug": "syria",
    "country_code": "SY",
    "country_name_ar": "سوريا",
    "country_name_en": "Syria",
    "timezone": "Asia/Damascus",
    "lat": 36.50237,
    "lon": 40.74772,
    "is_capital": false,
    "priority": 422445,
    "population": 422445
  }
]
