[
  {
    "city_slug": "kyiv",
    "city_name_ar": "كييف",
    "city_name_en": "Kyiv",
    "country_slug": "ukraine",
    "country_code": "UA",
    "country_name_ar": "أوكرانيا",
    "country_name_en": "Ukraine",
    "timezone": "Europe/Kyiv",
    "lat": 50.45466,
    "lon": 30.5238,
    "is_capital": true,
    "priority": 2797553,
    "population": 2797553
  },
  {
    "city_slug": "kharkiv",
    "city_name_ar": "خاركوف",
    "city_name_en": "Kharkiv",
    "country_slug": "ukraine",
    "country_code": "UA",
    "country_name_ar": "أوكرانيا",
    "country_name_en": "Ukraine",
    "timezone": "Europe/Kyiv",
    "lat": 49.98177,
    "lon": 36.25475,
    "is_capital": false,
    "priority": 1433886,
    "population": 1433886
  },
  {
    "city_slug": "odesa",
    "city_name_ar": "أوديسا",
    "city_name_en": "Odesa",
    "country_slug": "ukraine",
    "country_code": "UA",
    "country_name_ar": "أوكرانيا",
    "country_name_en": "Ukraine",
    "timezone": "Europe/Kyiv",
    "lat": 46.48572,
    "lon": 30.74383,
    "is_capital": false,
    "priority": 1015826,
    "population": 1015826
  },
  {
    "city_slug": "dnipro",
    "city_name_ar": "دنيبرو",
    "city_name_en": "Dnipro",
    "country_slug": "ukraine",
    "country_code": "UA",
    "country_name_ar": "أوكرانيا",
    "country_name_en": "Ukraine",
    "timezone": "Europe/Kyiv",
    "lat": 48.46664,
    "lon": 35.04066,
    "is_capital": false,
    "priority": 968502,
    "population": 968502
  },
  {
    "city_slug": "donetsk",
    "city_name_ar": "دونيتسك",
    "city_name_en": "Donetsk",
    "country_slug": "ukraine",
    "country_code": "UA",
    "country_name_ar": "أوكرانيا",
    "country_name_en": "Ukraine",
    "timezone": "Europe/Kyiv",
    "lat": 48.023,
    "lon": 37.80224,
    "is_capital": false,
    "priority": 901645,
    "population": 901645
  },
  {
    "city_slug": "lviv",
    "city_name_ar": "لفيف",
    "city_name_en": "Lviv",
    "country_slug": "ukraine",
    "country_code": "UA",
    "country_name_ar": "أوكرانيا",
    "country_name_en": "Ukraine",
    "timezone": "Europe/Kyiv",
    "lat": 49.83826,
    "lon": 24.02324,
    "is_capital": false,
    "priority": 717273,
    "population": 717273
  },
  {
    "city_slug": "zaporizhzhya",
    "city_name_ar": "زاباروجيا",
    "city_name_en": "Zaporizhzhya",
    "country_slug": "ukraine",
    "country_code": "UA",
    "country_name_ar": "أوكرانيا",
    "country_name_en": "Ukraine",
    "timezone": "Europe/Kyiv",
    "lat": 47.85167,
    "lon": 35.11714,
    "is_capital": false,
    "priority": 710052,
    "population": 710052
  }
]
