[
  {
    "city_slug": "abu-dhabi",
    "city_name_ar": "أبوظبي",
    "city_name_en": "Abu Dhabi",
    "country_slug": "united-arab-emirates",
    "country_code": "AE",
    "country_name_ar": "الإمارات العربية المتحدة",
    "country_name_en": "United Arab Emirates",
    "timezone": "Asia/Dubai",
    "lat": 24.45118,
    "lon": 54.39696,
    "is_capital": true,
    "priority": 1807000,
    "population": 1807000
  },
  {
    "city_slug": "dubai",
    "city_name_ar": "دبي",
    "city_name_en": "Dubai",
    "country_slug": "united-arab-emirates",
    "country_code": "AE",
    "country_name_ar": "الإمارات العربية المتحدة",
    "country_name_en": "United Arab Emirates",
    "timezone": "Asia/Dubai",
    "lat": 25.07725,
    "lon": 55.30927,
    "is_capital": false,
    "priority": 3790000,
    "population": 3790000
  },
  {
    "city_slug": "sharjah",
    "city_name_ar": "إمارة الشارقة",
    "city_name_en": "Sharjah",
    "country_slug": "united-arab-emirates",
    "country_code": "AE",
    "country_name_ar": "الإمارات العربية المتحدة",
    "country_name_en": "United Arab Emirates",
    "timezone": "Asia/Dubai",
    "lat": 25.3342,
    "lon": 55.41221,
    "is_capital": false,
    "priority": 1800000,
    "population": 1800000
  },
  {
    "city_slug": "al-ain-city",
    "city_name_ar": "العين",
    "city_name_en": "Al Ain City",
    "country_slug": "united-arab-emirates",
    "country_code": "AE",
    "country_name_ar": "الإمارات العربية المتحدة",
    "country_name_en": "United Arab Emirates",
    "timezone": "Asia/Dubai",
    "lat": 24.19167,
    "lon": 55.76056,
    "is_capital": false,
    "priority": 846747,
    "population": 846747
  },
  {
    "city_slug": "ajman",
    "city_name_ar": "عجمان",
    "city_name_en": "Ajman",
    "country_slug": "united-arab-emirates",
    "country_code": "AE",
    "country_name_ar": "الإمارات العربية المتحدة",
    "country_name_en": "United Arab Emirates",
    "timezone": "Asia/Dubai",
    "lat": 25.40177,
    "lon": 55.47878,
    "is_capital": false,
    "priority": 490035,
    "population": 490035
  },
  {
    "city_slug": "dayrah",
    "city_name_ar": "ديرة",
    "city_name_en": "Dayrah",
    "country_slug": "united-arab-emirates",
    "country_code": "AE",
    "country_name_ar": "الإمارات العربية المتحدة",
    "country_name_en": "United Arab Emirates",
    "timezone": "Asia/Dubai",
    "lat": 25.27143,
    "lon": 55.30207,
    "is_capital": false,
    "priority": 400000,
    "population": 400000
  }
]
