[
  {
    "city_slug": "washington",
    "city_name_ar": "واشنطن العاصمة",
    "city_name_en": "Washington",
    "country_slug": "united-states",
    "country_code": "US",
    "country_name_ar": "الولايات المتحدة",
    "country_name_en": "United States",
    "timezone": "America/New_York",
    "lat": 38.89511,
    "lon": -77.03637,
    "is_capital": true,
    "priority": 689545,
    "population": 689545
  },
  {
    "city_slug": "new-york-city",
    "city_name_ar": "نيويورك",
    "city_name_en": "New York City",
    "country_slug": "united-states",
    "country_code": "US",
    "country_name_ar": "الولايات المتحدة",
    "country_name_en": "United States",
    "timezone": "America/New_York",
    "lat": 40.71427,
    "lon": -74.00597,
    "is_capital": false,
    "priority": 8804190,
    "population": 8804190
  },
  {
    "city_slug": "los-angeles",
    "city_name_ar": "لوس أنجلوس",
    "city_name_en": "Los Angeles",
    "country_slug": "united-states",
    "country_code": "US",
    "country_name_ar": "الولايات المتحدة",
    "country_name_en": "United States",
    "timezone": "America/Los_Angeles",
    "lat": 34.05223,
    "lon": -118.24368,
    "is_capital": false,
    "priority": 3820914,
    "population": 3820914
  },
  {
    "city_slug": "brooklyn",
    "city_name_ar": "بروكلين",
    "city_name_en": "Brooklyn",
    "country_slug": "united-states",
    "country_code": "US",
    "country_name_ar": "الولايات المتحدة",
    "country_name_en": "United States",
    "timezone": "America/New_York",
    "lat": 39.23039,
    "lon": -76.60219,
    "is_capital": false,
    "priority": 2736074,
    "population": 2736074
  },
  {
    "city_slug": "chicago",
    "city_name_ar": "شيكاغو",
    "city_name_en": "Chicago",
    "country_slug": "united-states",
    "country_code": "US",
    "country_name_ar": "الولايات المتحدة",
    "country_name_en": "United States",
    "timezone": "America/Chicago",
    "lat": 41.85003,
    "lon": -87.65005,
    "is_capital": false,
    "priority": 2664452,
    "population": 2664452
  },
  {
    "city_slug": "queens",
    "city_name_ar": "كوينز",
    "city_name_en": "Queens",
    "country_slug": "united-states",
    "country_code": "US",
    "country_name_ar": "الولايات المتحدة",
    "country_name_en": "United States",
    "timezone": "America/New_York",
    "lat": 40.68149,
    "lon": -73.83652,
    "is_capital": false,
    "priority": 2316841,
    "population": 2316841
  },
  {
    "city_slug": "houston",
    "city_name_ar": "هيوستن",
    "city_name_en": "Houston",
    "country_slug": "united-states",
    "country_code": "US",
    "country_name_ar": "الولايات المتحدة",
    "country_name_en": "United States",
    "timezone": "America/Chicago",
    "lat": 29.76328,
    "lon": -95.36327,
    "is_capital": false,
    "priority": 2314157,
    "population": 2314157
  },
  {
    "city_slug": "phoenix",
    "city_name_ar": "فينيكس",
    "city_name_en": "Phoenix",
    "country_slug": "united-states",
    "country_code": "US",
    "country_name_ar": "الولايات المتحدة",
    "country_name_en": "United States",
    "timezone": "America/Phoenix",
    "lat": 33.44838,
    "lon": -112.07404,
    "is_capital": false,
    "priority": 1650070,
    "population": 1650070
  },
  {
    "city_slug": "philadelphia",
    "city_name_ar": "فيلادلفيا",
    "city_name_en": "Philadelphia",
    "country_slug": "united-states",
    "country_code": "US",
    "country_name_ar": "الولايات المتحدة",
    "country_name_en": "United States",
    "timezone": "America/Chicago",
    "lat": 32.77152,
    "lon": -89.11673,
    "is_capital": false,
    "priority": 1573916,
    "population": 1573916
  },
  {
    "city_slug": "san-antonio",
    "city_name_ar": "سان أنطونيو",
    "city_name_en": "San Antonio",
    "country_slug": "united-states",
    "country_code": "US",
    "country_name_ar": "الولايات المتحدة",
    "country_name_en": "United States",
    "timezone": "America/Chicago",
    "lat": 29.42412,
    "lon": -98.49363,
    "is_capital": false,
    "priority": 1526656,
    "population": 1526656
  },
  {
    "city_slug": "manhattan",
    "city_name_ar": "مانهاتن",
    "city_name_en": "Manhattan",
    "country_slug": "united-states",
    "country_code": "US",
    "country_name_ar": "الولايات المتحدة",
    "country_name_en": "United States",
    "timezone": "America/Chicago",
    "lat": 39.18361,
    "lon": -96.57167,
    "is_capital": false,
    "priority": 1487536,
    "population": 1487536
  },
  {
    "city_slug": "san-diego",
    "city_name_ar": "سان دييغو",
    "city_name_en": "San Diego",
    "country_slug": "united-states",
    "country_code": "US",
    "country_name_ar": "الولايات المتحدة",
    "country_name_en": "United States",
    "timezone": "America/Los_Angeles",
    "lat": 32.71571,
    "lon": -117.16472,
    "is_capital": false,
    "priority": 1404452,
    "population": 1404452
  },
  {
    "city_slug": "the-bronx",
    "city_name_ar": "البرونكس",
    "city_name_en": "The Bronx",
    "country_slug": "united-states",
    "country_code": "US",
    "country_name_ar": "الولايات المتحدة",
    "country_name_en": "United States",
    "timezone": "America/New_York",
    "lat": 40.84985,
    "lon": -73.86641,
    "is_capital": false,
    "priority": 1385108,
    "population": 1385108
  },
  {
    "city_slug": "dallas",
    "city_name_ar": "دالاس",
    "city_name_en": "Dallas",
    "country_slug": "united-states",
    "country_code": "US",
    "country_name_ar": "الولايات المتحدة",
    "country_name_en": "United States",
    "timezone": "America/New_York",
    "lat": 33.92371,
    "lon": -84.84077,
    "is_capital": false,
    "priority": 1326087,
    "population": 1326087
  },
  {
    "city_slug": "jacksonville",
    "city_name_ar": "جاكسونفيل",
    "city_name_en": "Jacksonville",
    "country_slug": "united-states",
    "country_code": "US",
    "country_name_ar": "الولايات المتحدة",
    "country_name_en": "United States",
    "timezone": "America/Chicago",
    "lat": 33.81382,
    "lon": -85.7613,
    "is_capital": false,
    "priority": 1009833,
    "population": 1009833
  },
  {
    "city_slug": "fort-worth",
    "city_name_ar": "فورت وورث",
    "city_name_en": "Fort Worth",
    "country_slug": "united-states",
    "country_code": "US",
    "country_name_ar": "الولايات المتحدة",
    "country_name_en": "United States",
    "timezone": "America/Chicago",
    "lat": 32.72541,
    "lon": -97.32085,
    "is_capital": false,
    "priority": 1008106,
    "population": 1008106
  },
  {
    "city_slug": "san-jose",
    "city_name_ar": "سان هوزيه",
    "city_name_en": "San Jose",
    "country_slug": "united-states",
    "country_code": "US",
    "country_name_ar": "الولايات المتحدة",
    "country_name_en": "United States",
    "timezone": "America/Los_Angeles",
    "lat": 37.33939,
    "lon": -121.89496,
    "is_capital": false,
    "priority": 997368,
    "population": 997368
  },
  {
    "city_slug": "austin",
    "city_name_ar": "أوستن",
    "city_name_en": "Austin",
    "country_slug": "united-states",
    "country_code": "US",
    "country_name_ar": "الولايات المتحدة",
    "country_name_en": "United States",
    "timezone": "America/Chicago",
    "lat": 30.26715,
    "lon": -97.74306,
    "is_capital": false,
    "priority": 974447,
    "population": 974447
  },
  {
    "city_slug": "columbus",
    "city_name_ar": "كولومبوس",
    "city_name_en": "Columbus",
    "country_slug": "united-states",
    "country_code": "US",
    "country_name_ar": "الولايات المتحدة",
    "country_name_en": "United States",
    "timezone": "America/New_York",
    "lat": 32.46098,
    "lon": -84.98771,
    "is_capital": false,
    "priority": 913175,
    "population": 913175
  },
  {
    "city_slug": "charlotte",
    "city_name_ar": "تشارلوت",
    "city_name_en": "Charlotte",
    "country_slug": "united-states",
    "country_code": "US",
    "country_name_ar": "الولايات المتحدة",
    "country_name_en": "United States",
    "timezone": "America/New_York",
    "lat": 35.22709,
    "lon": -80.84313,
    "is_capital": false,
    "priority": 911311,
    "population": 911311
  },
  {
    "city_slug": "indianapolis",
    "city_name_ar": "إنديانابوليس",
    "city_name_en": "Indianapolis",
    "country_slug": "united-states",
    "country_code": "US",
    "country_name_ar": "الولايات المتحدة",
    "country_name_en": "United States",
    "timezone": "America/Indiana/Indianapolis",
    "lat": 39.76838,
    "lon": -86.15804,
    "is_capital": false,
    "priority": 887642,
    "population": 887642
  },
  {
    "city_slug": "san-francisco",
    "city_name_ar": "سان فرانسيسكو",
    "city_name_en": "San Francisco",
    "country_slug": "united-states",
    "country_code": "US",
    "country_name_ar": "الولايات المتحدة",
    "country_name_en": "United States",
    "timezone": "America/Los_Angeles",
    "lat": 37.77493,
    "lon": -122.41942,
    "is_capital": false,
    "priority": 827526,
    "population": 827526
  },
  {
    "city_slug": "seattle",
    "city_name_ar": "سياتل",
    "city_name_en": "Seattle",
    "country_slug": "united-states",
    "country_code": "US",
    "country_name_ar": "الولايات المتحدة",
    "country_name_en": "United States",
    "timezone": "America/Los_Angeles",
    "lat": 47.60621,
    "lon": -122.33207,
    "is_capital": false,
    "priority": 780995,
    "population": 780995
  },
  {
    "city_slug": "denver",
    "city_name_ar": "دنفر",
    "city_name_en": "Denver",
    "country_slug": "united-states",
    "country_code": "US",
    "country_name_ar": "الولايات المتحدة",
    "country_name_en": "United States",
    "timezone": "America/Denver",
    "lat": 39.73915,
    "lon": -104.9847,
    "is_capital": false,
    "priority": 729019,
    "population": 729019
  },
  {
    "city_slug": "nashville",
    "city_name_ar": "ناشفيل",
    "city_name_en": "Nashville",
    "country_slug": "united-states",
    "country_code": "US",
    "country_name_ar": "الولايات المتحدة",
    "country_name_en": "United States",
    "timezone": "America/New_York",
    "lat": 35.9746,
    "lon": -77.96554,
    "is_capital": false,
    "priority": 689447,
    "population": 689447
  },
  {
    "city_slug": "oklahoma-city",
    "city_name_ar": "أوكلاهوما سيتي",
    "city_name_en": "Oklahoma City",
    "country_slug": "united-states",
    "country_code": "US",
    "country_name_ar": "الولايات المتحدة",
    "country_name_en": "United States",
    "timezone": "America/Chicago",
    "lat": 35.46756,
    "lon": -97.51643,
    "is_capital": false,
    "priority": 681054,
    "population": 681054
  },
  {
    "city_slug": "el-paso",
    "city_name_ar": "إل باسو",
    "city_name_en": "El Paso",
    "country_slug": "united-states",
    "country_code": "US",
    "country_name_ar": "الولايات المتحدة",
    "country_name_en": "United States",
    "timezone": "America/Denver",
    "lat": 31.75872,
    "lon": -106.48693,
    "is_capital": false,
    "priority": 678815,
    "population": 678815
  },
  {
    "city_slug": "boston",
    "city_name_ar": "بوسطن",
    "city_name_en": "Boston",
    "country_slug": "united-states",
    "country_code": "US",
    "country_name_ar": "الولايات المتحدة",
    "country_name_en": "United States",
    "timezone": "America/New_York",
    "lat": 42.35843,
    "lon": -71.05977,
    "is_capital": false,
    "priority": 653833,
    "population": 653833
  },
  {
    "city_slug": "portland",
    "city_name_ar": "بورتلاند",
    "city_name_en": "Portland",
    "country_slug": "united-states",
    "country_code": "US",
    "country_name_ar": "الولايات المتحدة",
    "country_name_en": "United States",
    "timezone": "America/Chicago",
    "lat": 36.58171,
    "lon": -86.51638,
    "is_capital": false,
    "priority": 652503,
    "population": 652503
  },
  {
    "city_slug": "detroit",
    "city_name_ar": "ديترويت",
    "city_name_en": "Detroit",
    "country_slug": "united-states",
    "country_code": "US",
    "country_name_ar": "الولايات المتحدة",
    "country_name_en": "United States",
    "timezone": "America/Detroit",
    "lat": 42.33143,
    "lon": -83.04575,
    "is_capital": false,
    "priority": 645705,
    "population": 645705
  },
  {
    "city_slug": "las-vegas",
    "city_name_ar": "لاس فيغاس",
    "city_name_en": "Las Vegas",
    "country_slug": "united-states",
    "country_code": "US",
    "country_name_ar": "الولايات المتحدة",
    "country_name_en": "United States",
    "timezone": "America/Denver",
    "lat": 35.59393,
    "lon": -105.2239,
    "is_capital": false,
    "priority": 641903,
    "population": 641903
  },
  {
    "city_slug": "new-south-memphis",
    "city_name_ar": "نيو سوث ميمفيس",
    "city_name_en": "New South Memphis",
    "country_slug": "united-states",
    "country_code": "US",
    "country_name_ar": "الولايات المتحدة",
    "country_name_en": "United States",
    "timezone": "America/Chicago",
    "lat": 35.08676,
    "lon": -90.05676,
    "is_capital": false,
    "priority": 641608,
    "population": 641608
  },
  {
    "city_slug": "memphis",
    "city_name_ar": "ممفيس (توضيح)",
    "city_name_en": "Memphis",
    "country_slug": "united-states",
    "country_code": "US",
    "country_name_ar": "الولايات المتحدة",
    "country_name_en": "United States",
    "timezone": "America/New_York",
    "lat": 27.53587,
    "lon": -82.56121,
    "is_capital": false,
    "priority": 633104,
    "population": 633104
  },
  {
    "city_slug": "louisville",
    "city_name_ar": "لويفيل",
    "city_name_en": "Louisville",
    "country_slug": "united-states",
    "country_code": "US",
    "country_name_ar": "الولايات المتحدة",
    "country_name_en": "United States",
    "timezone": "America/Kentucky/Louisville",
    "lat": 38.25424,
    "lon": -85.75941,
    "is_capital": false,
    "priority": 624444,
    "population": 624444
  },
  {
    "city_slug": "baltimore",
    "city_name_ar": "بالتيمور",
    "city_name_en": "Baltimore",
    "country_slug": "united-states",
    "country_code": "US",
    "country_name_ar": "الولايات المتحدة",
    "country_name_en": "United States",
    "timezone": "America/New_York",
    "lat": 39.29038,
    "lon": -76.61219,
    "is_capital": false,
    "priority": 585708,
    "population": 585708
  },
  {
    "city_slug": "south-boston",
    "city_name_ar": "ساوث بوسطن",
    "city_name_en": "South Boston",
    "country_slug": "united-states",
    "country_code": "US",
    "country_name_ar": "الولايات المتحدة",
    "country_name_en": "United States",
    "timezone": "America/New_York",
    "lat": 36.69875,
    "lon": -78.9014,
    "is_capital": false,
    "priority": 571281,
    "population": 571281
  },
  {
    "city_slug": "albuquerque",
    "city_name_ar": "ألباكركي",
    "city_name_en": "Albuquerque",
    "country_slug": "united-states",
    "country_code": "US",
    "country_name_ar": "الولايات المتحدة",
    "country_name_en": "United States",
    "timezone": "America/Denver",
    "lat": 35.08449,
    "lon": -106.65114,
    "is_capital": false,
    "priority": 564559,
    "population": 564559
  },
  {
    "city_slug": "milwaukee",
    "city_name_ar": "ميلواكي",
    "city_name_en": "Milwaukee",
    "country_slug": "united-states",
    "country_code": "US",
    "country_name_ar": "الولايات المتحدة",
    "country_name_en": "United States",
    "timezone": "America/Chicago",
    "lat": 43.0389,
    "lon": -87.90647,
    "is_capital": false,
    "priority": 563531,
    "population": 563531
  },
  {
    "city_slug": "tucson",
    "city_name_ar": "توسون",
    "city_name_en": "Tucson",
    "country_slug": "united-states",
    "country_code": "US",
    "country_name_ar": "الولايات المتحدة",
    "country_name_en": "United States",
    "timezone": "America/Phoenix",
    "lat": 32.22174,
    "lon": -110.92648,
    "is_capital": false,
    "priority": 542629,
    "population": 542629
  },
  {
    "city_slug": "fresno",
    "city_name_ar": "فريسنو",
    "city_name_en": "Fresno",
    "country_slug": "united-states",
    "country_code": "US",
    "country_name_ar": "الولايات المتحدة",
    "country_name_en": "United States",
    "timezone": "America/Chicago",
    "lat": 29.53885,
    "lon": -95.44744,
    "is_capital": false,
    "priority": 542107,
    "population": 542107
  },
  {
    "city_slug": "sacramento",
    "city_name_ar": "ساكرامنتو",
    "city_name_en": "Sacramento",
    "country_slug": "united-states",
    "country_code": "US",
    "country_name_ar": "الولايات المتحدة",
    "country_name_en": "United States",
    "timezone": "America/Los_Angeles",
    "lat": 38.58157,
    "lon": -121.4944,
    "is_capital": false,
    "priority": 524943,
    "population": 524943
  },
  {
    "city_slug": "atlanta",
    "city_name_ar": "أتلانتا",
    "city_name_en": "Atlanta",
    "country_slug": "united-states",
    "country_code": "US",
    "country_name_ar": "الولايات المتحدة",
    "country_name_en": "United States",
    "timezone": "America/New_York",
    "lat": 33.749,
    "lon": -84.38798,
    "is_capital": false,
    "priority": 510823,
    "population": 510823
  },
  {
    "city_slug": "miami",
    "city_name_ar": "ميامي",
    "city_name_en": "Miami",
    "country_slug": "united-states",
    "country_code": "US",
    "country_name_ar": "الولايات المتحدة",
    "country_name_en": "United States",
    "timezone": "America/New_York",
    "lat": 25.77427,
    "lon": -80.19366,
    "is_capital": false,
    "priority": 487014,
    "population": 487014
  },
  {
    "city_slug": "omaha",
    "city_name_ar": "أوماها",
    "city_name_en": "Omaha",
    "country_slug": "united-states",
    "country_code": "US",
    "country_name_ar": "الولايات المتحدة",
    "country_name_en": "United States",
    "timezone": "America/Chicago",
    "lat": 41.25626,
    "lon": -95.94043,
    "is_capital": false,
    "priority": 486051,
    "population": 486051
  },
  {
    "city_slug": "raleigh",
    "city_name_ar": "رالي",
    "city_name_en": "Raleigh",
    "country_slug": "united-states",
    "country_code": "US",
    "country_name_ar": "الولايات المتحدة",
    "country_name_en": "United States",
    "timezone": "America/New_York",
    "lat": 35.7721,
    "lon": -78.63861,
    "is_capital": false,
    "priority": 482295,
    "population": 482295
  },
  {
    "city_slug": "kansas-city",
    "city_name_ar": "كانساس سيتي",
    "city_name_en": "Kansas City",
    "country_slug": "united-states",
    "country_code": "US",
    "country_name_ar": "الولايات المتحدة",
    "country_name_en": "United States",
    "timezone": "America/Chicago",
    "lat": 39.11417,
    "lon": -94.62746,
    "is_capital": false,
    "priority": 475378,
    "population": 475378
  },
  {
    "city_slug": "long-beach",
    "city_name_ar": "لونغ بيتش",
    "city_name_en": "Long Beach",
    "country_slug": "united-states",
    "country_code": "US",
    "country_name_ar": "الولايات المتحدة",
    "country_name_en": "United States",
    "timezone": "America/Chicago",
    "lat": 30.35048,
    "lon": -89.15282,
    "is_capital": false,
    "priority": 474140,
    "population": 474140
  },
  {
    "city_slug": "mesa",
    "city_name_ar": "ميسا",
    "city_name_en": "Mesa",
    "country_slug": "united-states",
    "country_code": "US",
    "country_name_ar": "الولايات المتحدة",
    "country_name_en": "United States",
    "timezone": "America/Phoenix",
    "lat": 33.42227,
    "lon": -111.82264,
    "is_capital": false,
    "priority": 471825,
    "population": 471825
  },
  {
    "city_slug": "staten-island",
    "city_name_ar": "جزيرة ستاتن",
    "city_name_en": "Staten Island",
    "country_slug": "united-states",
    "country_code": "US",
    "country_name_ar": "الولايات المتحدة",
    "country_name_en": "United States",
    "timezone": "America/New_York",
    "lat": 40.56233,
    "lon": -74.13986,
    "is_capital": false,
    "priority": 468730,
    "population": 468730
  },
  {
    "city_slug": "colorado-springs",
    "city_name_ar": "كولورادو سبرينغس",
    "city_name_en": "Colorado Springs",
    "country_slug": "united-states",
    "country_code": "US",
    "country_name_ar": "الولايات المتحدة",
    "country_name_en": "United States",
    "timezone": "America/Denver",
    "lat": 38.83388,
    "lon": -104.82136,
    "is_capital": false,
    "priority": 456568,
    "population": 456568
  },
  {
    "city_slug": "virginia-beach",
    "city_name_ar": "فرجينيا بيتش",
    "city_name_en": "Virginia Beach",
    "country_slug": "united-states",
    "country_code": "US",
    "country_name_ar": "الولايات المتحدة",
    "country_name_en": "United States",
    "timezone": "America/New_York",
    "lat": 36.85293,
    "lon": -75.97799,
    "is_capital": false,
    "priority": 454808,
    "population": 454808
  },
  {
    "city_slug": "oakland",
    "city_name_ar": "أوكلاند",
    "city_name_en": "Oakland",
    "country_slug": "united-states",
    "country_code": "US",
    "country_name_ar": "الولايات المتحدة",
    "country_name_en": "United States",
    "timezone": "America/Chicago",
    "lat": 35.22898,
    "lon": -89.51508,
    "is_capital": false,
    "priority": 419267,
    "population": 419267
  },
  {
    "city_slug": "tampa",
    "city_name_ar": "تامبا",
    "city_name_en": "Tampa",
    "country_slug": "united-states",
    "country_code": "US",
    "country_name_ar": "الولايات المتحدة",
    "country_name_en": "United States",
    "timezone": "America/New_York",
    "lat": 27.94752,
    "lon": -82.45843,
    "is_capital": false,
    "priority": 414547,
    "population": 414547
  },
  {
    "city_slug": "tulsa",
    "city_name_ar": "تلسا",
    "city_name_en": "Tulsa",
    "country_slug": "united-states",
    "country_code": "US",
    "country_name_ar": "الولايات المتحدة",
    "country_name_en": "United States",
    "timezone": "America/Chicago",
    "lat": 36.15398,
    "lon": -95.99277,
    "is_capital": false,
    "priority": 413066,
    "population": 413066
  },
  {
    "city_slug": "minneapolis",
    "city_name_ar": "مينيابولس",
    "city_name_en": "Minneapolis",
    "country_slug": "united-states",
    "country_code": "US",
    "country_name_ar": "الولايات المتحدة",
    "country_name_en": "United States",
    "timezone": "America/Chicago",
    "lat": 44.97997,
    "lon": -93.26384,
    "is_capital": false,
    "priority": 410939,
    "population": 410939
  },
  {
    "city_slug": "wichita",
    "city_name_ar": "ويتشيتا",
    "city_name_en": "Wichita",
    "country_slug": "united-states",
    "country_code": "US",
    "country_name_ar": "الولايات المتحدة",
    "country_name_en": "United States",
    "timezone": "America/Chicago",
    "lat": 37.69224,
    "lon": -97.33754,
    "is_capital": false,
    "priority": 396119,
    "population": 396119
  },
  {
    "city_slug": "arlington",
    "city_name_ar": "أرلينغتون",
    "city_name_en": "Arlington",
    "country_slug": "united-states",
    "country_code": "US",
    "country_name_ar": "الولايات المتحدة",
    "country_name_en": "United States",
    "timezone": "America/Chicago",
    "lat": 35.2962,
    "lon": -89.66147,
    "is_capital": false,
    "priority": 388125,
    "population": 388125
  },
  {
    "city_slug": "bakersfield",
    "city_name_ar": "بيكرسفيلد",
    "city_name_en": "Bakersfield",
    "country_slug": "united-states",
    "country_code": "US",
    "country_name_ar": "الولايات المتحدة",
    "country_name_en": "United States",
    "timezone": "America/Los_Angeles",
    "lat": 35.37329,
    "lon": -119.01871,
    "is_capital": false,
    "priority": 373640,
    "population": 373640
  },
  {
    "city_slug": "cleveland",
    "city_name_ar": "كليفلاند",
    "city_name_en": "Cleveland",
    "country_slug": "united-states",
    "country_code": "US",
    "country_name_ar": "الولايات المتحدة",
    "country_name_en": "United States",
    "timezone": "America/Chicago",
    "lat": 33.744,
    "lon": -90.72482,
    "is_capital": false,
    "priority": 365379,
    "population": 365379
  },
  {
    "city_slug": "new-orleans",
    "city_name_ar": "نيو أورلينز",
    "city_name_en": "New Orleans",
    "country_slug": "united-states",
    "country_code": "US",
    "country_name_ar": "الولايات المتحدة",
    "country_name_en": "United States",
    "timezone": "America/Chicago",
    "lat": 29.95465,
    "lon": -90.07507,
    "is_capital": false,
    "priority": 362701,
    "population": 362701
  }
]
