[
  {
    "city_slug": "caracas",
    "city_name_ar": "كاراكاس",
    "city_name_en": "Caracas",
    "country_slug": "venezuela",
    "country_code": "VE",
    "country_name_ar": "فنزويلا",
    "country_name_en": "Venezuela",
    "timezone": "America/Caracas",
    "lat": 10.48801,
    "lon": -66.87919,
    "is_capital": true,
    "priority": 3000000,
    "population": 3000000
  },
  {
    "city_slug": "maracaibo",
    "city_name_ar": "ماراكايبو",
    "city_name_en": "Maracaibo",
    "country_slug": "venezuela",
    "country_code": "VE",
    "country_name_ar": "فنزويلا",
    "country_name_en": "Venezuela",
    "timezone": "America/Caracas",
    "lat": 10.64232,
    "lon": -71.61089,
    "is_capital": false,
    "priority": 1752602,
    "population": 1752602
  },
  {
    "city_slug": "valencia",
    "city_name_ar": "بلنسية",
    "city_name_en": "Valencia",
    "country_slug": "venezuela",
    "country_code": "VE",
    "country_name_ar": "فنزويلا",
    "country_name_en": "Venezuela",
    "timezone": "America/Caracas",
    "lat": 10.16153,
    "lon": -68.00044,
    "is_capital": false,
    "priority": 1619470,
    "population": 1619470
  },
  {
    "city_slug": "barquisimeto",
    "city_name_ar": "باركيسيميتو",
    "city_name_en": "Barquisimeto",
    "country_slug": "venezuela",
    "country_code": "VE",
    "country_name_ar": "فنزويلا",
    "country_name_en": "Venezuela",
    "timezone": "America/Caracas",
    "lat": 10.0647,
    "lon": -69.35703,
    "is_capital": false,
    "priority": 1240714,
    "population": 1240714
  },
  {
    "city_slug": "ciudad-guayana",
    "city_name_ar": "بويرتو أورداز",
    "city_name_en": "Ciudad Guayana",
    "country_slug": "venezuela",
    "country_code": "VE",
    "country_name_ar": "فنزويلا",
    "country_name_en": "Venezuela",
    "timezone": "America/Caracas",
    "lat": 8.35122,
    "lon": -62.64102,
    "is_capital": false,
    "priority": 978202,
    "population": 978202
  },
  {
    "city_slug": "barcelona",
    "city_name_ar": "برشلونة، فنزويلا",
    "city_name_en": "Barcelona",
    "country_slug": "venezuela",
    "country_code": "VE",
    "country_name_ar": "فنزويلا",
    "country_name_en": "Venezuela",
    "timezone": "America/Caracas",
    "lat": 10.1384,
    "lon": -64.68769,
    "is_capital": false,
    "priority": 815141,
    "population": 815141
  },
  {
    "city_slug": "maturin",
    "city_name_ar": "ماتورين",
    "city_name_en": "Maturin",
    "country_slug": "venezuela",
    "country_code": "VE",
    "country_name_ar": "فنزويلا",
    "country_name_en": "Venezuela",
    "timezone": "America/Caracas",
    "lat": 9.74569,
    "lon": -63.18323,
    "is_capital": false,
    "priority": 647459,
    "population": 647459
  }
]
