[
  {
    "city_slug": "hanoi",
    "city_name_ar": "هانوي",
    "city_name_en": "Hanoi",
    "country_slug": "vietnam",
    "country_code": "VN",
    "country_name_ar": "فيتنام",
    "country_name_en": "Vietnam",
    "timezone": "Asia/Bangkok",
    "lat": 21.0245,
    "lon": 105.84117,
    "is_capital": true,
    "priority": 8053663,
    "population": 8053663
  },
  {
    "city_slug": "ho-chi-minh-city",
    "city_name_ar": "مدينة هو تشي مينه",
    "city_name_en": "Ho Chi Minh City",
    "country_slug": "vietnam",
    "country_code": "VN",
    "country_name_ar": "فيتنام",
    "country_name_en": "Vietnam",
    "timezone": "Asia/Ho_Chi_Minh",
    "lat": 10.82302,
    "lon": 106.62965,
    "is_capital": false,
    "priority": 14002598,
    "population": 14002598
  },
  {
    "city_slug": "haiphong",
    "city_name_ar": "هايفونغ",
    "city_name_en": "Haiphong",
    "country_slug": "vietnam",
    "country_code": "VN",
    "country_name_ar": "فيتنام",
    "country_name_en": "Vietnam",
    "timezone": "Asia/Bangkok",
    "lat": 20.86481,
    "lon": 106.68345,
    "is_capital": false,
    "priority": 2625200,
    "population": 2625200
  },
  {
    "city_slug": "can-tho",
    "city_name_ar": "كن تاه",
    "city_name_en": "Can Tho",
    "country_slug": "vietnam",
    "country_code": "VN",
    "country_name_ar": "فيتنام",
    "country_name_en": "Vietnam",
    "timezone": "Asia/Ho_Chi_Minh",
    "lat": 10.03711,
    "lon": 105.78825,
    "is_capital": false,
    "priority": 1507187,
    "population": 1507187
  },
  {
    "city_slug": "hue",
    "city_name_ar": "هوي",
    "city_name_en": "Hue",
    "country_slug": "vietnam",
    "country_code": "VN",
    "country_name_ar": "فيتنام",
    "country_name_en": "Vietnam",
    "timezone": "Asia/Bangkok",
    "lat": 16.4619,
    "lon": 107.59546,
    "is_capital": false,
    "priority": 1380000,
    "population": 1380000
  },
  {
    "city_slug": "da-nang",
    "city_name_ar": "دا نانغ",
    "city_name_en": "Da Nang",
    "country_slug": "vietnam",
    "country_code": "VN",
    "country_name_ar": "فيتنام",
    "country_name_en": "Vietnam",
    "timezone": "Asia/Ho_Chi_Minh",
    "lat": 16.06778,
    "lon": 108.22083,
    "is_capital": false,
    "priority": 1276000,
    "population": 1276000
  },
  {
    "city_slug": "bien-hoa",
    "city_name_ar": "بين هوا",
    "city_name_en": "Bien Hoa",
    "country_slug": "vietnam",
    "country_code": "VN",
    "country_name_ar": "فيتنام",
    "country_name_en": "Vietnam",
    "timezone": "Asia/Ho_Chi_Minh",
    "lat": 10.94469,
    "lon": 106.82432,
    "is_capital": false,
    "priority": 1272235,
    "population": 1272235
  },
  {
    "city_slug": "thanh-hoa",
    "city_name_ar": "تانه هوا",
    "city_name_en": "Thanh Hoa",
    "country_slug": "vietnam",
    "country_code": "VN",
    "country_name_ar": "فيتنام",
    "country_name_en": "Vietnam",
    "timezone": "Asia/Bangkok",
    "lat": 19.8,
    "lon": 105.76667,
    "is_capital": false,
    "priority": 850000,
    "population": 850000
  },
  {
    "city_slug": "vinh",
    "city_name_ar": "فينه",
    "city_name_en": "Vinh",
    "country_slug": "vietnam",
    "country_code": "VN",
    "country_name_ar": "فيتنام",
    "country_name_en": "Vietnam",
    "timezone": "Asia/Bangkok",
    "lat": 18.67337,
    "lon": 105.69232,
    "is_capital": false,
    "priority": 790000,
    "population": 790000
  }
]
